City_ID,City,Country,Max Temp,Weather Description,Lat,Lng,Hotel Name
0,Cozumel,MX,86.07,scattered clouds,20.5083,-86.9458,Cozumel Palace® All Inclusive Resort
1,Vila Velha,BR,84.15,clear sky,-20.3297,-40.2925,Quality Suites Vila Velha
2,Eskil,TR,61.92,broken clouds,38.4017,33.4131,Eskil Öğretmen Evi
3,Guerrero Negro,MX,79.56,clear sky,27.9769,-114.0611,"Casa Laguna, Bed & Breakfast"
5,Busselton,AU,51.08,overcast clouds,-33.65,115.3333,Observatory Guest House
6,Puerto Ayora,EC,71.98,overcast clouds,-0.7393,-90.3518,Finch Bay Galapagos Hotel
8,Port Alfred,ZA,57.81,broken clouds,-33.5906,26.891,The Halyards Hotel
9,Verin,ES,68.27,overcast clouds,41.9415,-7.4381,Parador de Verín
10,Garowe,SO,86.68,light rain,8.4054,48.4845,Curubo Hotel
11,Nikolskoye,RU,50.02,broken clouds,59.7035,30.7861,Tourist House - Sablino
12,Hobart,AU,53.46,heavy intensity drizzle,-42.8794,147.3294,Mantra on Collins Hobart
15,Port Hardy,CA,50.18,moderate rain,50.6996,-127.4199,Airport Inn
16,Avarua,CK,73.45,moderate rain,-21.2078,-159.775,Paradise Inn
21,Rikitea,PF,72.43,light rain,-23.1203,-134.9692,People ThankYou
23,Kapaa,US,75.52,broken clouds,22.0752,-159.319,Sheraton Kauai Coconut Beach Resort
25,Vaini,TO,71.76,broken clouds,-21.2,-175.2,Keleti Beach Resort
26,Jamestown,US,74.17,clear sky,42.097,-79.2353,Hampton Inn & Suites Jamestown
27,Mar Del Plata,AR,64.42,light rain,-38.0023,-57.5575,Gran Hotel Mar del Plata
28,Jamestown,US,74.17,clear sky,42.097,-79.2353,Hampton Inn & Suites Jamestown
30,Sechura,PE,75.38,scattered clouds,-5.5569,-80.8222,Hospedaje Costa Bella
31,Columbus,US,78.28,broken clouds,39.9612,-82.9988,DoubleTree Suites by Hilton Hotel Columbus Downtown
32,Mount Gambier,AU,53.51,overcast clouds,-37.8333,140.7667,The Commodore
35,Poum,NC,73.71,few clouds,-20.2333,164.0167,Gîte kajeon
37,Atuona,PF,77.95,scattered clouds,-9.8,-139.0333,Villa Enata
40,Hobart,AU,53.46,heavy intensity drizzle,-42.8794,147.3294,Mantra on Collins Hobart
41,Butaritari,KI,82.49,overcast clouds,3.0707,172.7902,Isles Sunset Lodge
42,Laguna,US,83.44,clear sky,38.421,-121.4238,"Holiday Inn Express & Suites Elk Grove Central - Hwy 99, an IHG Hotel"
43,Cape Town,ZA,56.26,scattered clouds,-33.9258,18.4232,Southern Sun Waterfront Cape Town
44,Hammerfest,NO,52.25,clear sky,70.6634,23.6821,Skytterhuset
46,San Quintin,MX,79.63,overcast clouds,30.4833,-115.95,Don Eddie's Sport Fishing Center
48,Busselton,AU,51.08,overcast clouds,-33.65,115.3333,Observatory Guest House
49,Georgetown,MY,80.89,few clouds,5.4112,100.3354,Cititel Penang
50,Bredasdorp,ZA,51.28,broken clouds,-34.5322,20.0403,Bredasdorp Country Manor
51,Rikitea,PF,72.43,light rain,-23.1203,-134.9692,People ThankYou
52,Hermanus,ZA,53.91,broken clouds,-34.4187,19.2345,Misty Waves Boutique Hotel
53,Gat,IL,76.82,few clouds,31.61,34.7642,OlusHome
54,Carnarvon,AU,62.67,clear sky,-24.8667,113.6333,Hospitality Carnarvon
57,Saint-Joseph,RE,70.21,scattered clouds,-21.3667,55.6167,"""Plantation Bed and Breakfast"
59,Chifeng,CN,62.94,overcast clouds,42.2683,118.9636,Junyu Tiancheng Hotel
61,Minot,US,67.19,clear sky,48.2325,-101.2963,Noble Inn
62,Camacha,PT,71.02,scattered clouds,33.0833,-16.3333,Hotel Porto Santo & Spa
64,Ribeira Grande,PT,73.8,broken clouds,38.5167,-28.7,Quinta da Meia Eira
65,Hasaki,JP,68.4,broken clouds,35.7333,140.8333,Hotel Sunrise Choshi
66,Hobart,AU,53.46,heavy intensity drizzle,-42.8794,147.3294,Mantra on Collins Hobart
67,Asosa,ET,61.11,light rain,10.0667,34.5333,Blendana Hotel Assosa
68,Kapaa,US,75.52,broken clouds,22.0752,-159.319,Sheraton Kauai Coconut Beach Resort
69,Vaini,TO,71.76,broken clouds,-21.2,-175.2,Keleti Beach Resort
70,Constitucion,CL,56.46,clear sky,-35.3333,-72.4167,Hotel Boutique Las Azucenas
72,Rikitea,PF,72.43,light rain,-23.1203,-134.9692,People ThankYou
73,Flinders,AU,56.21,clear sky,-34.5833,150.8552,Shellharbour Resort & Conference Centre
76,Victoria,HK,86.38,light rain,22.2855,114.1577,Mini Hotel Central
77,Avarua,CK,73.45,moderate rain,-21.2078,-159.775,Paradise Inn
78,Mehamn,NO,50.14,overcast clouds,71.0357,27.8492,Mehamn Arctic Hotel AS
79,Navolato,MX,82.63,overcast clouds,24.7672,-107.6944,Cofradía de San pedro Navolato sinaloa
80,Rikitea,PF,72.43,light rain,-23.1203,-134.9692,People ThankYou
83,Kloulklubed,PW,81.1,overcast clouds,7.0419,134.2556,Storyboard Beach Resort
84,Hilo,US,73.13,light rain,19.7297,-155.09,Hilo Hawaiian Hotel
85,East London,ZA,59.13,broken clouds,-33.0153,27.9116,Tu Casa
86,Butaritari,KI,82.49,overcast clouds,3.0707,172.7902,Isles Sunset Lodge
89,Harper,LR,79.5,overcast clouds,4.375,-7.7169,Screensaver
90,Vaini,TO,71.76,broken clouds,-21.2,-175.2,Keleti Beach Resort
91,Ojhar,IN,74.86,overcast clouds,20.1,73.9333,Neelkamal Quarters
92,Labuhan,ID,78.33,overcast clouds,-6.8844,112.2051,PT PPI Lamongan Tambak C
93,Antofagasta,CL,60.08,few clouds,-23.65,-70.4,"Holiday Inn Express Antofagasta, an IHG Hotel"
95,Bambous Virieux,MU,74.21,scattered clouds,-20.3428,57.7575,Casa Tia Villa
96,Rikitea,PF,72.43,light rain,-23.1203,-134.9692,People ThankYou
100,Butaritari,KI,82.49,overcast clouds,3.0707,172.7902,Isles Sunset Lodge
102,Airai,TL,60.31,overcast clouds,-8.9266,125.4092,Juvinal Martin
103,Jamestown,US,74.17,clear sky,42.097,-79.2353,Hampton Inn & Suites Jamestown
105,Esperance,AU,56.73,scattered clouds,-33.8667,121.9,Hospitality Esperance
107,Port Townsend,US,56.21,overcast clouds,48.117,-122.7605,Aladdin Inn
108,Touros,BR,86.9,clear sky,-5.1989,-35.4608,INN NEW HORIZON
111,Port Elizabeth,ZA,52.11,scattered clouds,-33.918,25.5701,39 On Nile Guest House
113,Hobart,AU,53.46,heavy intensity drizzle,-42.8794,147.3294,Mantra on Collins Hobart
114,Puerto Ayora,EC,71.98,overcast clouds,-0.7393,-90.3518,Finch Bay Galapagos Hotel
118,Skelleftea,SE,50.36,overcast clouds,64.7507,20.9528,Quality Hotel Skellefteå Stadshotell
119,Rikitea,PF,72.43,light rain,-23.1203,-134.9692,People ThankYou
121,Kaeo,NZ,54.32,broken clouds,-35.1,173.7833,Bushido Lodge
122,Port Alfred,ZA,57.81,broken clouds,-33.5906,26.891,The Halyards Hotel
124,Mount Gambier,AU,53.51,overcast clouds,-37.8333,140.7667,The Commodore
125,Busselton,AU,51.08,overcast clouds,-33.65,115.3333,Observatory Guest House
127,Bredasdorp,ZA,51.28,broken clouds,-34.5322,20.0403,Bredasdorp Country Manor
129,Portland,US,59.9,mist,45.5234,-122.6762,Embassy Suites by Hilton Portland Downtown
130,Paysandu,UY,74.43,clear sky,-32.3214,-58.0756,Gran Hotel Paysandú
132,Rikitea,PF,72.43,light rain,-23.1203,-134.9692,People ThankYou
133,Filadelfia,US,76.48,overcast clouds,39.9523,-75.1638,"The Ritz-Carlton, Philadelphia"
134,Cabo San Lucas,MX,81.95,broken clouds,22.8909,-109.9124,Hotel Tesoro Los Cabos
135,Luena,AO,66.02,overcast clouds,-11.7833,19.9167,Hotel Kandamba
136,Saint Anthony,US,71.02,mist,45.0205,-93.218,"Holiday Inn Express Roseville-St. Paul, an IHG Hotel"
137,Cape Town,ZA,56.26,scattered clouds,-33.9258,18.4232,Southern Sun Waterfront Cape Town
140,Auki,SB,77.31,broken clouds,-8.7676,160.7034,Auki Motel
141,Butaritari,KI,82.49,overcast clouds,3.0707,172.7902,Isles Sunset Lodge
142,Rikitea,PF,72.43,light rain,-23.1203,-134.9692,People ThankYou
145,Fuji,JP,69.96,clear sky,35.1667,138.6833,Fujimi Inn
146,Mangan,IN,70.81,scattered clouds,27.5167,88.5333,Hotel Mout View
147,Tayu,ID,77.31,overcast clouds,-6.5397,111.0518,Toko pakaian bu is Tayu
148,Isangel,VU,72.64,light rain,-19.55,169.2667,Tanna Lodge
149,Busselton,AU,51.08,overcast clouds,-33.65,115.3333,Observatory Guest House
151,Avarua,CK,73.45,moderate rain,-21.2078,-159.775,Paradise Inn
152,Rikitea,PF,72.43,light rain,-23.1203,-134.9692,People ThankYou
153,Ribeira Grande,PT,73.8,broken clouds,38.5167,-28.7,Quinta da Meia Eira
154,Grimshaw,CA,51.03,overcast clouds,56.1834,-117.6027,Pomeroy Inn & Suites Grimshaw
155,New Norfolk,AU,53.1,overcast clouds,-42.7826,147.0587,The Shingles Riverside Cottages
156,Lata,PT,70.03,overcast clouds,40.1629,-8.3327,Casa Maquia
157,Rikitea,PF,72.43,light rain,-23.1203,-134.9692,People ThankYou
159,Rikitea,PF,72.43,light rain,-23.1203,-134.9692,People ThankYou
161,Hilo,US,73.13,light rain,19.7297,-155.09,Hilo Hawaiian Hotel
163,New Norfolk,AU,53.1,overcast clouds,-42.7826,147.0587,The Shingles Riverside Cottages
164,Hilo,US,73.13,light rain,19.7297,-155.09,Hilo Hawaiian Hotel
165,Kaduqli,SD,79.21,overcast clouds,11.0167,29.7167,فندق الله جابو
167,Sao Filipe,CV,80.13,scattered clouds,14.8961,-24.4956,Hotel Xaguate
168,Hilo,US,73.13,light rain,19.7297,-155.09,Hilo Hawaiian Hotel
170,Mayo,US,79.11,scattered clouds,38.8876,-76.5119,Resorts Resource Group International
171,Balkanabat,TM,66.67,clear sky,39.5108,54.3671,Nebitchi Hotel
173,Sao Joao Da Barra,BR,87.89,overcast clouds,-21.6403,-41.0511,Pousada Porto De Canoas
174,Rikitea,PF,72.43,light rain,-23.1203,-134.9692,People ThankYou
175,Ribeira Grande,PT,73.8,broken clouds,38.5167,-28.7,Quinta da Meia Eira
177,Saint-Tite,CA,57.51,overcast clouds,46.7334,-72.5658,Gîte de l'Artiste
178,Atuona,PF,77.95,scattered clouds,-9.8,-139.0333,Villa Enata
179,New Norfolk,AU,53.1,overcast clouds,-42.7826,147.0587,The Shingles Riverside Cottages
183,San Cristobal,VE,86.18,broken clouds,7.7669,-72.225,Posada Villaven C.A.
187,Kapaa,US,75.52,broken clouds,22.0752,-159.319,Sheraton Kauai Coconut Beach Resort
188,Kavaratti,IN,82.08,overcast clouds,10.5669,72.642,Hotels in Lakshadweep Islands
189,Hilo,US,73.13,light rain,19.7297,-155.09,Hilo Hawaiian Hotel
190,Toyooka,JP,63.21,clear sky,35.5333,134.8333,O Hotel Toyooka
192,Faanui,PF,79.29,scattered clouds,-16.4833,-151.75,Bora-Bora Pearl Beach Resort & Spa
193,Hermanus,ZA,53.91,broken clouds,-34.4187,19.2345,Misty Waves Boutique Hotel
194,Cortez,US,63.41,clear sky,37.3489,-108.5859,Sand Canyon National 9 Inn
197,Pacific Grove,US,82.62,clear sky,36.6177,-121.9166,Lovers Point Inn
198,Bambanglipuro,ID,76.42,overcast clouds,-7.95,110.2833,Puri Brata
200,Guerrero Negro,MX,79.56,clear sky,27.9769,-114.0611,"Casa Laguna, Bed & Breakfast"
201,Isangel,VU,72.64,light rain,-19.55,169.2667,Tanna Lodge
202,Rikitea,PF,72.43,light rain,-23.1203,-134.9692,People ThankYou
203,Ghogha,IN,85.64,overcast clouds,21.6833,72.2833,hanumanji temple of bhankhal
204,Cozumel,MX,86.07,scattered clouds,20.5083,-86.9458,Cozumel Palace® All Inclusive Resort
205,Puerto Ayora,EC,71.98,overcast clouds,-0.7393,-90.3518,Finch Bay Galapagos Hotel
207,Atuona,PF,77.95,scattered clouds,-9.8,-139.0333,Villa Enata
209,Ponta Do Sol,PT,77.72,clear sky,32.6667,-17.1,Hotel do Campo
211,Busselton,AU,51.08,overcast clouds,-33.65,115.3333,Observatory Guest House
214,Thunder Bay,CA,63.99,mist,48.4001,-89.3168,Victoria Inn Hotel and Convention Centre
216,Hithadhoo,MV,82.96,scattered clouds,-0.6,73.0833,Scoop Guest House
217,Makakilo City,US,75.52,broken clouds,21.3469,-158.0858,Marriott's Ko Olina Beach Club
218,Vannes,FR,64.62,overcast clouds,47.8333,-2.5,Le Bolloch Françoise
219,Rikitea,PF,72.43,light rain,-23.1203,-134.9692,People ThankYou
221,Castro,BR,71.6,light rain,-24.7911,-50.0119,CHACARA BAILLY
223,Rikitea,PF,72.43,light rain,-23.1203,-134.9692,People ThankYou
224,Shawville,CA,61.77,overcast clouds,45.6001,-76.4827,Shawville Hotel
230,Avarua,CK,73.45,moderate rain,-21.2078,-159.775,Paradise Inn
231,Grand Gaube,MU,74.37,clear sky,-20.0064,57.6608,Veranda Paul et Virginie Hotel & Spa
233,Hamilton,US,79.74,haze,39.1834,-84.5333,Six Acres Bed & Breakfast
234,Kanniyakumari,IN,79.68,scattered clouds,8.0833,77.5667,Sparsa
235,Esperance,AU,56.73,scattered clouds,-33.8667,121.9,Hospitality Esperance
237,Hobart,AU,53.46,heavy intensity drizzle,-42.8794,147.3294,Mantra on Collins Hobart
238,Lebu,CL,51.22,broken clouds,-37.6167,-73.65,Hostal Las Lilas
239,Cidreira,BR,65.73,broken clouds,-30.1811,-50.2056,Hotel Castelo
241,Kavieng,PG,81.12,overcast clouds,-2.5744,150.7967,Nusa Island Retreat
244,Mar Del Plata,AR,64.42,light rain,-38.0023,-57.5575,Gran Hotel Mar del Plata
245,Saint-Philippe,RE,71.22,scattered clouds,-21.3585,55.7679,"Chambres d'hôte ""La Trinité"""
246,Sidhi,IN,77.7,scattered clouds,24.4167,81.8833,Kamdhenu Sweets
250,Gopamau,IN,82.69,scattered clouds,27.55,80.2833,श्रीराम पाल भवन
251,Yulara,AU,67.84,clear sky,-25.2406,130.9889,Desert Gardens Hotel - Ayers Rock Resort
252,Grand-Santi,GF,89.98,broken clouds,4.25,-54.3833,Hotel La Villa Couacou
253,Busselton,AU,51.08,overcast clouds,-33.65,115.3333,Observatory Guest House
254,Kapaa,US,75.52,broken clouds,22.0752,-159.319,Sheraton Kauai Coconut Beach Resort
256,Vaini,TO,71.76,broken clouds,-21.2,-175.2,Keleti Beach Resort
258,Villa Carlos Paz,AR,84.4,few clouds,-31.4241,-64.4978,Monte Carlo
259,Saint Marys,US,89.04,overcast clouds,30.7305,-81.5465,Spencer House Inn
262,Bambous Virieux,MU,74.21,scattered clouds,-20.3428,57.7575,Casa Tia Villa
264,Dingle,PH,76.84,overcast clouds,10.9995,122.6711,SEGAYA PROPERTY
265,Chapais,CA,53.38,few clouds,49.7834,-74.8492,Hôtel Opémiska
266,Castro,BR,71.6,light rain,-24.7911,-50.0119,CHACARA BAILLY
268,Hualmay,PE,67.35,broken clouds,-11.0964,-77.6139,Hotel Villa Kitzia Huacho
269,Ponta Delgada,PT,74.12,scattered clouds,37.7333,-25.6667,Vila Nova Hotel
270,Vrangel,RU,54.27,clear sky,42.7297,133.0839,"Отель ""БАЛИ"""
272,Kavaratti,IN,82.08,overcast clouds,10.5669,72.642,Hotels in Lakshadweep Islands
273,Kulhudhuffushi,MV,82.2,overcast clouds,6.6221,73.07,Hondaafushi Island Resort
275,Coquimbo,CL,64.13,clear sky,-29.9533,-71.3436,Punto de encuentro
276,Carnarvon,AU,62.67,clear sky,-24.8667,113.6333,Hospitality Carnarvon
278,Port-Gentil,GA,78.33,overcast clouds,-0.7193,8.7815,Fengshui Residence
279,Torbay,CA,65.28,broken clouds,47.6666,-52.7314,Gallows Cove
280,Flin Flon,CA,60.64,few clouds,54.7682,-101.865,Victoria Inn Flin Flon
281,Bengkulu,ID,76.84,overcast clouds,-3.8004,102.2655,Grage Hotel Bengkulu
282,Katsuura,JP,70.2,clear sky,35.1333,140.3,Katsuura Hotel Mikazuki
283,Saint-Philippe,RE,71.22,scattered clouds,-21.3585,55.7679,"Chambres d'hôte ""La Trinité"""
284,Bosaso,SO,87.71,few clouds,11.2842,49.1816,Red Sea Hotel
286,Mahebourg,MU,74.25,scattered clouds,-20.4081,57.7,Shandrani Beachcomber Resort & Spa
287,Menongue,AO,79.48,clear sky,-14.6585,17.691,Ritz Lauca
288,Tura,IN,74.77,few clouds,25.5198,90.2201,Hotel RIKMAN Continental
289,Chuy,UY,65.17,clear sky,-33.6971,-53.4616,Nuevo Hotel Plaza
290,Rikitea,PF,72.43,light rain,-23.1203,-134.9692,People ThankYou
292,Alice Springs,AU,71.15,clear sky,-23.7,133.8833,Desert Palms Alice Springs
294,Cape Town,ZA,56.26,scattered clouds,-33.9258,18.4232,Southern Sun Waterfront Cape Town
295,Lorengau,PG,79.65,few clouds,-2.0226,147.2712,Lorengau Harbourside Hotel
296,Townsend,US,77.22,scattered clouds,39.3951,-75.6916,Frederick Lodge Manufactured Home Community
297,Busselton,AU,51.08,overcast clouds,-33.65,115.3333,Observatory Guest House
298,Fortuna,US,58.93,overcast clouds,40.5982,-124.1573,Super 8 by Wyndham Fortuna
299,Trelew,AR,52.12,overcast clouds,-43.249,-65.3051,Hotel Touring Club
301,Hilo,US,73.13,light rain,19.7297,-155.09,Hilo Hawaiian Hotel
302,Hermanus,ZA,53.91,broken clouds,-34.4187,19.2345,Misty Waves Boutique Hotel
304,Castro,BR,71.6,light rain,-24.7911,-50.0119,CHACARA BAILLY
306,Mocorito,MX,85.26,overcast clouds,25.4833,-107.9167,Casa de Don Eustaquio
308,San Quintin,MX,79.63,overcast clouds,30.4833,-115.95,Don Eddie's Sport Fishing Center
309,Saint-Joseph,RE,70.21,scattered clouds,-21.3667,55.6167,"""Plantation Bed and Breakfast"
313,Bethel,US,73.78,clear sky,41.3712,-73.414,Courtyard by Marriott Danbury
314,Souillac,MU,74.35,scattered clouds,-20.5167,57.5167,Shanti Maurice Resort & Spa
316,Rikitea,PF,72.43,light rain,-23.1203,-134.9692,People ThankYou
317,Salta,AR,83.57,clear sky,-24.7859,-65.4117,Hotel Alejandro I
318,Yarada,IN,82.72,few clouds,17.65,83.2667,Jeevan
319,Lebu,CL,51.22,broken clouds,-37.6167,-73.65,Hostal Las Lilas
320,Moron,AR,60.55,light rain,-34.6534,-58.6198,Hotel Morón
321,Rikitea,PF,72.43,light rain,-23.1203,-134.9692,People ThankYou
325,Rio Grande,BR,68.95,clear sky,-32.035,-52.0986,Hotel Atlântico Rio Grande
326,Souillac,MU,74.35,scattered clouds,-20.5167,57.5167,Shanti Maurice Resort & Spa
328,Salalah,OM,82.49,scattered clouds,17.0151,54.0924,HAMDAN PLAZA HOTEL SALALAH
329,Hervey Bay,AU,69.03,broken clouds,-25.2986,152.8535,Shelly Bay Resort
330,Yulara,AU,67.84,clear sky,-25.2406,130.9889,Desert Gardens Hotel - Ayers Rock Resort
331,Port Alfred,ZA,57.81,broken clouds,-33.5906,26.891,The Halyards Hotel
332,Nikolskoye,RU,50.02,broken clouds,59.7035,30.7861,Tourist House - Sablino
333,Port Elizabeth,ZA,52.11,scattered clouds,-33.918,25.5701,39 On Nile Guest House
335,Isla Mujeres,MX,84.25,scattered clouds,21.2311,-86.731,Hotel La Joya Isla Mujeres
336,Terpinnya,UA,56.59,overcast clouds,46.9697,35.4197,Hotel Style Kharkiv
337,Honiara,SB,77.76,overcast clouds,-9.4333,159.95,Heritage Park Hotel
340,Nakamura,JP,63.97,clear sky,32.9833,132.9333,Hotel Crown Hills Nakamura
341,Vaini,TO,71.76,broken clouds,-21.2,-175.2,Keleti Beach Resort
344,Matagami,CA,55.51,broken clouds,49.7502,-77.6328,Hôtel Matagami
345,Teahupoo,PF,73.36,scattered clouds,-17.8333,-149.2667,Vanira Lodge
346,Hobart,AU,53.46,heavy intensity drizzle,-42.8794,147.3294,Mantra on Collins Hobart
348,Castro,BR,71.6,light rain,-24.7911,-50.0119,CHACARA BAILLY
351,Lebu,CL,51.22,broken clouds,-37.6167,-73.65,Hostal Las Lilas
356,Manaus,BR,84.69,thunderstorm,-3.1019,-60.025,Manaus Hotéis Millennium
357,Carnarvon,AU,62.67,clear sky,-24.8667,113.6333,Hospitality Carnarvon
358,Celestun,MX,88.16,broken clouds,20.8667,-90.4,Posada Lilia
359,Ternate,ID,80.22,overcast clouds,0.8,127.4,Grand Dafam Bela Ternate
360,Hobart,AU,53.46,heavy intensity drizzle,-42.8794,147.3294,Mantra on Collins Hobart
361,Port Elizabeth,ZA,52.11,scattered clouds,-33.918,25.5701,39 On Nile Guest House
362,Nikolskoye,RU,50.02,broken clouds,59.7035,30.7861,Tourist House - Sablino
363,Maple Creek,CA,66.69,scattered clouds,49.9168,-109.4848,Willowbend Campground & Cabins
365,Aizpute,LV,52.83,scattered clouds,56.7167,21.6,"Mētra A, SIA"
366,Minot,US,67.19,clear sky,48.2325,-101.2963,Noble Inn
370,Mardin,TR,74.23,clear sky,37.3131,40.7436,Reyhani Kasri Hotel
372,Samarai,PG,79.18,scattered clouds,-10.6167,150.6667,Nuli Sapi
373,Half Moon Bay,US,82.58,clear sky,37.4636,-122.4286,"The Ritz-Carlton, Half Moon Bay"
375,Rikitea,PF,72.43,light rain,-23.1203,-134.9692,People ThankYou
376,Naze,JP,77.14,clear sky,28.3667,129.4833,オーベルジュ・アガルイ
377,Arraial Do Cabo,BR,84.16,clear sky,-22.9661,-42.0278,Pousada Porto Praia
378,Bethel,US,73.78,clear sky,41.3712,-73.414,Courtyard by Marriott Danbury
381,Kaihua,CN,64.47,broken clouds,23.3687,104.28,Zhongyu Hotel
382,Ribeira Grande,PT,73.8,broken clouds,38.5167,-28.7,Quinta da Meia Eira
383,Cape Town,ZA,56.26,scattered clouds,-33.9258,18.4232,Southern Sun Waterfront Cape Town
384,Hermanus,ZA,53.91,broken clouds,-34.4187,19.2345,Misty Waves Boutique Hotel
386,Bethel,US,73.78,clear sky,41.3712,-73.414,Courtyard by Marriott Danbury
387,Mpongwe,ZM,79.79,broken clouds,-13.5091,28.155,GCMF Office & Lodge
389,Saint-Philippe,RE,71.22,scattered clouds,-21.3585,55.7679,"Chambres d'hôte ""La Trinité"""
390,Bredasdorp,ZA,51.28,broken clouds,-34.5322,20.0403,Bredasdorp Country Manor
391,Jamestown,US,74.17,clear sky,42.097,-79.2353,Hampton Inn & Suites Jamestown
393,Hilo,US,73.13,light rain,19.7297,-155.09,Hilo Hawaiian Hotel
397,Ambilobe,MG,74.89,scattered clouds,-13.2,49.05,Hôtel & Restaurant DIANA Ambilobe
399,Faya,SA,71.71,overcast clouds,18.3851,42.4509,املاك خالد الشعشوع
400,Miraflores,MX,69.03,overcast clouds,19.2167,-98.8083,Hotel Mansión
402,Gilgit,PK,75.34,few clouds,35.9221,74.3087,Tourist Hamlet Gilgit
407,Emerald,AU,68.07,clear sky,-23.5333,148.1667,The Irish Village
409,Fortuna,US,58.93,overcast clouds,40.5982,-124.1573,Super 8 by Wyndham Fortuna
412,Ponta Do Sol,PT,77.72,clear sky,32.6667,-17.1,Hotel do Campo
413,Saint-Georges,GD,89.28,broken clouds,12.0564,-61.7485,Radisson Grenada Beach Resort
415,Ambilobe,MG,74.89,scattered clouds,-13.2,49.05,Hôtel & Restaurant DIANA Ambilobe
416,Ginda,IN,61.3,scattered clouds,30.6945,78.4932,Bal uma sankar hotel and restaurant
418,Faya,SA,71.71,overcast clouds,18.3851,42.4509,املاك خالد الشعشوع
419,Hithadhoo,MV,82.96,scattered clouds,-0.6,73.0833,Scoop Guest House
420,Loralai,PK,77.86,overcast clouds,30.3705,68.598,Sana Poultry Loralai
421,Heerenveen,NL,59.22,light rain,52.95,5.9333,Fletcher Hotel-Restaurant Heidehof
423,Broome,US,73.09,clear sky,42.2506,-75.833,Chenango Valley State Park
424,Rikitea,PF,72.43,light rain,-23.1203,-134.9692,People ThankYou
425,Portland,US,59.9,mist,45.5234,-122.6762,Embassy Suites by Hilton Portland Downtown
428,Atuona,PF,77.95,scattered clouds,-9.8,-139.0333,Villa Enata
430,Mount Isa,AU,64.17,clear sky,-20.7333,139.5,ibis Styles Mt Isa Verona
431,Bol,TD,84.74,few clouds,13.4586,14.7147,Hotel 3 Etoiles
432,New Norfolk,AU,53.1,overcast clouds,-42.7826,147.0587,The Shingles Riverside Cottages
434,Camacha,PT,71.02,scattered clouds,33.0833,-16.3333,Hotel Porto Santo & Spa
435,Busselton,AU,51.08,overcast clouds,-33.65,115.3333,Observatory Guest House
436,Barcelona,ES,75.45,few clouds,41.3888,2.159,Axel Hotel Barcelona
438,Santona,ES,80.92,overcast clouds,43.4439,-3.4576,Playamar
439,Camana,PE,67.32,overcast clouds,-16.6228,-72.7111,Hostal Morales
440,Hithadhoo,MV,82.96,scattered clouds,-0.6,73.0833,Scoop Guest House
441,Macultepec,MX,88.09,broken clouds,18.1667,-92.8333,La guadalupana
445,Saint-Philippe,RE,71.22,scattered clouds,-21.3585,55.7679,"Chambres d'hôte ""La Trinité"""
446,Busselton,AU,51.08,overcast clouds,-33.65,115.3333,Observatory Guest House
447,Hisua,IN,77.18,overcast clouds,24.8333,85.4167,माँ सकुन्तला कैलाश सिंह निवाश
448,Kribi,CM,78.39,few clouds,2.95,9.9167,Les Vagues bleues
449,New Norfolk,AU,53.1,overcast clouds,-42.7826,147.0587,The Shingles Riverside Cottages
450,Blessington,IE,51.6,scattered clouds,53.17,-6.5325,Buttercup Stables
451,Aksu,CN,64.31,overcast clouds,41.1231,80.2644,Pudong Holiday Hotel
452,Ambon,ID,78.94,scattered clouds,-3.6954,128.1814,Swiss-Belhotel Ambon
453,Farafangana,MG,72.75,clear sky,-22.8167,47.8333,Miarina
457,Constitucion,CL,56.46,clear sky,-35.3333,-72.4167,Hotel Boutique Las Azucenas
459,Cidreira,BR,65.73,broken clouds,-30.1811,-50.2056,Hotel Castelo
460,Vallenar,CL,78.46,clear sky,-28.5708,-70.7581,Humacao Bed & Breakfast
462,Caravelas,BR,84.09,clear sky,-17.7125,-39.2481,Pousada dos Navegantes
463,Port Elizabeth,ZA,52.11,scattered clouds,-33.918,25.5701,39 On Nile Guest House
464,Montemorelos,MX,80.74,overcast clouds,25.2,-99.8167,Best Western Bazarell Inn
465,Rovaniemi,FI,51.21,overcast clouds,66.5,25.7167,Arctic City Hotel
469,Katsuura,JP,70.2,clear sky,35.1333,140.3,Katsuura Hotel Mikazuki
470,Cabo San Lucas,MX,81.95,broken clouds,22.8909,-109.9124,Hotel Tesoro Los Cabos
475,Naze,JP,77.14,clear sky,28.3667,129.4833,オーベルジュ・アガルイ
477,Havelock,US,80.98,clear sky,34.8791,-76.9013,Sherwood Motel
478,Diego De Almagro,CL,76.87,clear sky,-26.3667,-70.05,hotel luna del desierto
479,Fortuna,US,58.93,overcast clouds,40.5982,-124.1573,Super 8 by Wyndham Fortuna
480,Atuona,PF,77.95,scattered clouds,-9.8,-139.0333,Villa Enata
482,Nikolskoye,RU,50.02,broken clouds,59.7035,30.7861,Tourist House - Sablino
487,Nikolskoye,RU,50.02,broken clouds,59.7035,30.7861,Tourist House - Sablino
488,Cape Town,ZA,56.26,scattered clouds,-33.9258,18.4232,Southern Sun Waterfront Cape Town
492,Kapaa,US,75.52,broken clouds,22.0752,-159.319,Sheraton Kauai Coconut Beach Resort
493,Jamestown,US,74.17,clear sky,42.097,-79.2353,Hampton Inn & Suites Jamestown
494,Vaini,TO,71.76,broken clouds,-21.2,-175.2,Keleti Beach Resort
495,Tura,IN,74.77,few clouds,25.5198,90.2201,Hotel RIKMAN Continental
496,Mahebourg,MU,74.25,scattered clouds,-20.4081,57.7,Shandrani Beachcomber Resort & Spa
499,Busselton,AU,51.08,overcast clouds,-33.65,115.3333,Observatory Guest House
500,Butaritari,KI,82.49,overcast clouds,3.0707,172.7902,Isles Sunset Lodge
503,Busselton,AU,51.08,overcast clouds,-33.65,115.3333,Observatory Guest House
505,Hobart,AU,53.46,heavy intensity drizzle,-42.8794,147.3294,Mantra on Collins Hobart
506,Teguise,ES,77.22,clear sky,29.0605,-13.564,B&B La Casona de Nazaret
507,New Norfolk,AU,53.1,overcast clouds,-42.7826,147.0587,The Shingles Riverside Cottages
508,Port Hedland,AU,62.65,clear sky,-20.3167,118.5667,The Esplanade Hotel
509,Esperance,AU,56.73,scattered clouds,-33.8667,121.9,Hospitality Esperance
511,Constitucion,CL,56.46,clear sky,-35.3333,-72.4167,Hotel Boutique Las Azucenas
512,Kapaa,US,75.52,broken clouds,22.0752,-159.319,Sheraton Kauai Coconut Beach Resort
513,Muswellbrook,AU,50.7,clear sky,-32.2667,150.9,Wayfarer Motel
515,Tromso,NO,59.65,broken clouds,69.6496,18.957,"Radisson Blu Hotel, Tromsø"
516,Atuona,PF,77.95,scattered clouds,-9.8,-139.0333,Villa Enata
519,Atuona,PF,77.95,scattered clouds,-9.8,-139.0333,Villa Enata
521,Vung Tau,VN,79.2,broken clouds,10.346,107.0843,Green hotel
522,Mahebourg,MU,74.25,scattered clouds,-20.4081,57.7,Shandrani Beachcomber Resort & Spa
526,Kamyshevatskaya,RU,57.06,broken clouds,46.4132,37.9563,Gostevoy Dom Lotos-Lend
527,Takoradi,GH,80.06,light rain,4.8845,-1.7554,Raybow International Hotel
529,Saint-Philippe,RE,71.22,scattered clouds,-21.3585,55.7679,"Chambres d'hôte ""La Trinité"""
532,Rikitea,PF,72.43,light rain,-23.1203,-134.9692,People ThankYou
533,Namatanai,PG,78.8,overcast clouds,-3.6667,152.4333,Seagulls Inn Namatani
535,Fortuna,US,58.93,overcast clouds,40.5982,-124.1573,Super 8 by Wyndham Fortuna
536,Murrhardt,DE,69.21,broken clouds,48.9819,9.5705,Hotel Restaurant Sonne-Post
539,New Norfolk,AU,53.1,overcast clouds,-42.7826,147.0587,The Shingles Riverside Cottages
541,Kalmunai,LK,79.57,scattered clouds,7.4167,81.8167,VS Villa
543,Hilo,US,73.13,light rain,19.7297,-155.09,Hilo Hawaiian Hotel
547,Hasaki,JP,68.4,broken clouds,35.7333,140.8333,Hotel Sunrise Choshi
548,Avarua,CK,73.45,moderate rain,-21.2078,-159.775,Paradise Inn
553,Dalbandin,PK,83.68,scattered clouds,28.8947,64.4101,Gidaan Guest House
554,Lebu,CL,51.22,broken clouds,-37.6167,-73.65,Hostal Las Lilas
555,Mar Del Plata,AR,64.42,light rain,-38.0023,-57.5575,Gran Hotel Mar del Plata
556,Chapais,CA,53.38,few clouds,49.7834,-74.8492,Hôtel Opémiska
557,Rikitea,PF,72.43,light rain,-23.1203,-134.9692,People ThankYou
558,Rikitea,PF,72.43,light rain,-23.1203,-134.9692,People ThankYou
559,Xichang,CN,63.66,clear sky,27.8964,102.2634,Xichang ibis Hotel
560,Butaritari,KI,82.49,overcast clouds,3.0707,172.7902,Isles Sunset Lodge
561,Along,IN,72.41,scattered clouds,28.1667,94.7667,Hotel West
562,Jamestown,US,74.17,clear sky,42.097,-79.2353,Hampton Inn & Suites Jamestown
563,Buala,SB,79.47,light rain,-8.145,159.5921,Maringe Lagoon Lodge
564,Nouadhibou,MR,73.38,scattered clouds,20.931,-17.0347,El Medina
565,Vaitape,PF,79.29,few clouds,-16.5167,-151.75,Conrad Bora Bora Nui
567,Garden City,US,78.24,overcast clouds,42.3256,-83.331,Quality Inn & Suites Banquet Center
568,Takahagi,JP,65.28,clear sky,36.7167,140.7167,Matsushimakan
569,Rikitea,PF,72.43,light rain,-23.1203,-134.9692,People ThankYou
574,San Patricio,US,85.89,overcast clouds,28.017,-97.5169,"Motel 6 Sinton, TX"
576,Yanam,IN,79.45,few clouds,16.7333,82.2167,The Regency Hotel
578,Seydi,TM,54.34,clear sky,39.4816,62.9137,Seydi oteli
579,Rikitea,PF,72.43,light rain,-23.1203,-134.9692,People ThankYou
581,Kijang,KR,67.73,clear sky,35.2442,129.2139,Samyang Beach Villa
582,Atuona,PF,77.95,scattered clouds,-9.8,-139.0333,Villa Enata
584,Kavieng,PG,81.12,overcast clouds,-2.5744,150.7967,Nusa Island Retreat
585,Rikitea,PF,72.43,light rain,-23.1203,-134.9692,People ThankYou
586,Sioux Lookout,CA,59.38,light intensity drizzle,50.1001,-91.917,Knobby's Fly-In Camps
587,Mar Del Plata,AR,64.42,light rain,-38.0023,-57.5575,Gran Hotel Mar del Plata
588,Rikitea,PF,72.43,light rain,-23.1203,-134.9692,People ThankYou
589,Vaini,TO,71.76,broken clouds,-21.2,-175.2,Keleti Beach Resort
590,Sao Joao Da Barra,BR,87.89,overcast clouds,-21.6403,-41.0511,Pousada Porto De Canoas
592,Atuona,PF,77.95,scattered clouds,-9.8,-139.0333,Villa Enata
593,New Norfolk,AU,53.1,overcast clouds,-42.7826,147.0587,The Shingles Riverside Cottages
594,Young,UY,70.39,clear sky,-32.6833,-57.6333,Posada Gira el Sol
596,Thompson,CA,57.36,broken clouds,55.7435,-97.8558,Burntwood Hotel
598,Busselton,AU,51.08,overcast clouds,-33.65,115.3333,Observatory Guest House
600,Hilo,US,73.13,light rain,19.7297,-155.09,Hilo Hawaiian Hotel
603,Ryotsu,JP,64.87,clear sky,38.0833,138.4333,Sadokamoko Onsen Kohanno Yado Yoshidaya
604,Lompoc,US,87.13,clear sky,34.6391,-120.4579,"Holiday Inn Express Lompoc, an IHG Hotel"
607,Chapais,CA,53.38,few clouds,49.7834,-74.8492,Hôtel Opémiska
609,Guerrero Negro,MX,79.56,clear sky,27.9769,-114.0611,"Casa Laguna, Bed & Breakfast"
610,Kununurra,AU,76.98,broken clouds,-15.7667,128.7333,Hotel Kununurra
612,Kasongo,CD,71.58,light rain,-4.45,26.6667,Guest Hôtel
613,Vaini,TO,71.76,broken clouds,-21.2,-175.2,Keleti Beach Resort
615,Hilo,US,73.13,light rain,19.7297,-155.09,Hilo Hawaiian Hotel
617,Cidreira,BR,65.73,broken clouds,-30.1811,-50.2056,Hotel Castelo
618,Airai,TL,60.31,overcast clouds,-8.9266,125.4092,Juvinal Martin
619,Najran,SA,84.06,broken clouds,17.4924,44.1277,محمد هادي ال فطيح
620,Vaini,TO,71.76,broken clouds,-21.2,-175.2,Keleti Beach Resort
623,Carnarvon,AU,62.67,clear sky,-24.8667,113.6333,Hospitality Carnarvon
625,Hobyo,SO,79.16,clear sky,5.3505,48.5268,Halane Hotel and Restaurent
627,Mount Gambier,AU,53.51,overcast clouds,-37.8333,140.7667,The Commodore
628,San Pedro,PH,80.35,moderate rain,14.35,121.0167,Villa Veronica Resort Private Pool
629,Butaritari,KI,82.49,overcast clouds,3.0707,172.7902,Isles Sunset Lodge
630,Hermanus,ZA,53.91,broken clouds,-34.4187,19.2345,Misty Waves Boutique Hotel
632,Upington,ZA,66.58,clear sky,-28.4478,21.2561,River Place Manor
633,Ambon,ID,78.94,scattered clouds,-3.6954,128.1814,Swiss-Belhotel Ambon
634,Georgetown,MY,80.89,few clouds,5.4112,100.3354,Cititel Penang
635,Mar Del Plata,AR,64.42,light rain,-38.0023,-57.5575,Gran Hotel Mar del Plata
637,Ngaoundere,CM,67.91,light rain,7.3167,13.5833,Hotel Mentong Palace
639,Nchelenge,ZM,78.69,scattered clouds,-9.3451,28.734,KD Travellers Home
640,Hilo,US,73.13,light rain,19.7297,-155.09,Hilo Hawaiian Hotel
641,Bethel,US,73.78,clear sky,41.3712,-73.414,Courtyard by Marriott Danbury
642,Batemans Bay,AU,52.2,scattered clouds,-35.7167,150.1833,Batemans Bay Marina Resort
644,Portlethen,GB,51.57,broken clouds,57.0547,-2.1307,Premier Inn Aberdeen South (Portlethen) hotel
648,Sibiti,CG,76.06,light rain,-3.6819,13.3499,"LE PAPYRUS (hôtel, bar et restaurant)"
649,Hermanus,ZA,53.91,broken clouds,-34.4187,19.2345,Misty Waves Boutique Hotel
650,Mahebourg,MU,74.25,scattered clouds,-20.4081,57.7,Shandrani Beachcomber Resort & Spa
652,Chicama,PE,61.34,broken clouds,-7.8447,-79.1469,Balihai Bungalows
653,Muros,ES,67.98,overcast clouds,42.7762,-9.0603,Apartment Av. Castelao
654,Seoul,KR,69.24,mist,37.5683,126.9778,Lotte Hotel Seoul
655,Myrtle Beach,US,84.97,clear sky,33.6891,-78.8867,Bay View Resort Myrtle Beach
659,Saint-Philippe,RE,71.22,scattered clouds,-21.3585,55.7679,"Chambres d'hôte ""La Trinité"""
660,Suriapet,IN,77.02,scattered clouds,17.15,79.6167,MNR Lodge and Restaurant
661,Kavieng,PG,81.12,overcast clouds,-2.5744,150.7967,Nusa Island Retreat
663,Jumla,NP,57.97,broken clouds,29.2747,82.1838,"अन्नी घर, जुम्ला - Anni Ghar"
666,Kapaa,US,75.52,broken clouds,22.0752,-159.319,Sheraton Kauai Coconut Beach Resort
667,Bida,NG,85.71,broken clouds,9.0833,6.0167,Royal Suite
669,Yulara,AU,67.84,clear sky,-25.2406,130.9889,Desert Gardens Hotel - Ayers Rock Resort
671,Port Alfred,ZA,57.81,broken clouds,-33.5906,26.891,The Halyards Hotel
672,Atuona,PF,77.95,scattered clouds,-9.8,-139.0333,Villa Enata
673,Cidreira,BR,65.73,broken clouds,-30.1811,-50.2056,Hotel Castelo
674,Mahajanga,MG,77.02,few clouds,-15.7167,46.3167,Restaurant Greedy Coco Lodge Majunga
676,Rikitea,PF,72.43,light rain,-23.1203,-134.9692,People ThankYou
677,Sao Filipe,CV,80.13,scattered clouds,14.8961,-24.4956,Hotel Xaguate
678,Atuona,PF,77.95,scattered clouds,-9.8,-139.0333,Villa Enata
680,Puerto Ayora,EC,71.98,overcast clouds,-0.7393,-90.3518,Finch Bay Galapagos Hotel
681,Bethel,US,73.78,clear sky,41.3712,-73.414,Courtyard by Marriott Danbury
682,Rovaniemi,FI,51.21,overcast clouds,66.5,25.7167,Arctic City Hotel
683,Lagoa,PT,71.28,broken clouds,39.05,-27.9833,Casa Das Faias
684,Busselton,AU,51.08,overcast clouds,-33.65,115.3333,Observatory Guest House
685,Puerto Ayora,EC,71.98,overcast clouds,-0.7393,-90.3518,Finch Bay Galapagos Hotel
687,Yulara,AU,67.84,clear sky,-25.2406,130.9889,Desert Gardens Hotel - Ayers Rock Resort
688,Arraial Do Cabo,BR,84.16,clear sky,-22.9661,-42.0278,Pousada Porto Praia
690,Hilo,US,73.13,light rain,19.7297,-155.09,Hilo Hawaiian Hotel
691,Puerto Ayora,EC,71.98,overcast clouds,-0.7393,-90.3518,Finch Bay Galapagos Hotel
692,Saint-Philippe,RE,71.22,scattered clouds,-21.3585,55.7679,"Chambres d'hôte ""La Trinité"""
693,Zaria,NG,82.04,overcast clouds,11.1113,7.7227,Nubapoly Guest Inn
694,Castro,BR,71.6,light rain,-24.7911,-50.0119,CHACARA BAILLY
695,Sioux Lookout,CA,59.38,light intensity drizzle,50.1001,-91.917,Knobby's Fly-In Camps
696,Mount Gambier,AU,53.51,overcast clouds,-37.8333,140.7667,The Commodore
697,Sechura,PE,75.38,scattered clouds,-5.5569,-80.8222,Hospedaje Costa Bella
700,Zhongshu,CN,60.73,clear sky,24.5167,103.7667,Xintianlong Hotel
701,Comodoro Rivadavia,AR,51.66,clear sky,-45.8667,-67.5,Austral Hotel
702,Mount Gambier,AU,53.51,overcast clouds,-37.8333,140.7667,The Commodore
703,Monkey Hill,KN,87.66,few clouds,17.3167,-62.7167,St. Kitts Marriott Resort & The Royal Beach Casino
704,Trairi,BR,86.47,overcast clouds,-3.2778,-39.2689,janelas do mar
705,Puerto Ayora,EC,71.98,overcast clouds,-0.7393,-90.3518,Finch Bay Galapagos Hotel
706,Torbay,CA,65.28,broken clouds,47.6666,-52.7314,Gallows Cove
708,Busselton,AU,51.08,overcast clouds,-33.65,115.3333,Observatory Guest House
709,Rikitea,PF,72.43,light rain,-23.1203,-134.9692,People ThankYou
710,Hilo,US,73.13,light rain,19.7297,-155.09,Hilo Hawaiian Hotel
711,Ortakoy,TR,59.25,broken clouds,38.7373,34.0387,Berilhan Hotel
713,Sheridan,US,71.31,clear sky,44.8333,-106.9173,Comfort Inn & Suites
714,New Norfolk,AU,53.1,overcast clouds,-42.7826,147.0587,The Shingles Riverside Cottages
716,Esperance,AU,56.73,scattered clouds,-33.8667,121.9,Hospitality Esperance
719,Coquimbo,CL,64.13,clear sky,-29.9533,-71.3436,Punto de encuentro
720,Hobart,AU,53.46,heavy intensity drizzle,-42.8794,147.3294,Mantra on Collins Hobart
722,Kapaa,US,75.52,broken clouds,22.0752,-159.319,Sheraton Kauai Coconut Beach Resort
724,Nikolskoye,RU,50.02,broken clouds,59.7035,30.7861,Tourist House - Sablino
726,Busselton,AU,51.08,overcast clouds,-33.65,115.3333,Observatory Guest House
728,Butaritari,KI,82.49,overcast clouds,3.0707,172.7902,Isles Sunset Lodge
729,Kokopo,PG,76.15,overcast clouds,-4.352,152.2633,Kokopo Beach Bungalow Resort
733,Kapaa,US,75.52,broken clouds,22.0752,-159.319,Sheraton Kauai Coconut Beach Resort
738,Marsh Harbour,BS,80.53,overcast clouds,26.5412,-77.0636,Abaco Beach Resort
739,Uthal,PK,84.58,scattered clouds,25.8072,66.6219,Al-Mustafa Hotel
740,Chai Badan,TH,82.89,light rain,15.2,101.1333,Narai Grand Hotel
742,Puerto Ayora,EC,71.98,overcast clouds,-0.7393,-90.3518,Finch Bay Galapagos Hotel
743,Jibuti,DJ,87.22,overcast clouds,11.5,42.5,Orchid Main Camp Goubet
744,Olinda,BR,82.13,scattered clouds,-8.0089,-34.8553,Hotel Albergue de Olinda
745,Hun,LY,82.53,clear sky,29.1268,15.9477,Alrwasi Hotel
747,Isangel,VU,72.64,light rain,-19.55,169.2667,Tanna Lodge
750,Seddon,AU,56.79,overcast clouds,-37.8068,144.8916,Footscray Motor Inn
752,Alberton,CA,51.93,overcast clouds,46.8168,-64.0654,La Petite France B&B
753,New Norfolk,AU,53.1,overcast clouds,-42.7826,147.0587,The Shingles Riverside Cottages
754,Vaini,TO,71.76,broken clouds,-21.2,-175.2,Keleti Beach Resort
755,Prince Rupert,CA,51.49,light rain,54.3161,-130.3201,Crest Hotel
757,Rikitea,PF,72.43,light rain,-23.1203,-134.9692,People ThankYou
758,Sao Filipe,CV,80.13,scattered clouds,14.8961,-24.4956,Hotel Xaguate
759,Cape Town,ZA,56.26,scattered clouds,-33.9258,18.4232,Southern Sun Waterfront Cape Town
761,Banda Aceh,ID,78.78,overcast clouds,5.5577,95.3222,Sulthan Hotel International
762,Port Elizabeth,ZA,52.11,scattered clouds,-33.918,25.5701,39 On Nile Guest House
763,Jamestown,US,74.17,clear sky,42.097,-79.2353,Hampton Inn & Suites Jamestown
764,Busselton,AU,51.08,overcast clouds,-33.65,115.3333,Observatory Guest House
765,Lorengau,PG,79.65,few clouds,-2.0226,147.2712,Lorengau Harbourside Hotel
766,Korla,CN,57.83,overcast clouds,41.7597,86.1469,Gulisitan Hotel
768,Hobart,AU,53.46,heavy intensity drizzle,-42.8794,147.3294,Mantra on Collins Hobart
769,Mar Del Plata,AR,64.42,light rain,-38.0023,-57.5575,Gran Hotel Mar del Plata
771,Puerto Baquerizo Moreno,EC,76.19,scattered clouds,-0.9,-89.6,Hotel los Algarrobos
772,Jamestown,US,74.17,clear sky,42.097,-79.2353,Hampton Inn & Suites Jamestown
773,Ponta Do Sol,PT,77.72,clear sky,32.6667,-17.1,Hotel do Campo
774,Dakar,SN,87.93,thunderstorm,14.6937,-17.4441,Redface Studios Meublés
775,Chuy,UY,65.17,clear sky,-33.6971,-53.4616,Nuevo Hotel Plaza
776,Katsuura,JP,70.2,clear sky,35.1333,140.3,Katsuura Hotel Mikazuki
777,Jamestown,US,74.17,clear sky,42.097,-79.2353,Hampton Inn & Suites Jamestown
778,Jamestown,US,74.17,clear sky,42.097,-79.2353,Hampton Inn & Suites Jamestown
783,Hobart,AU,53.46,heavy intensity drizzle,-42.8794,147.3294,Mantra on Collins Hobart
784,Asfi,MA,73.38,few clouds,32.2994,-9.2372,Hôtel Abda
786,Hilo,US,73.13,light rain,19.7297,-155.09,Hilo Hawaiian Hotel
789,Avarua,CK,73.45,moderate rain,-21.2078,-159.775,Paradise Inn
791,Marihatag,PH,78.08,overcast clouds,8.7936,126.2969,Mariner's Place & Resort
792,Rikitea,PF,72.43,light rain,-23.1203,-134.9692,People ThankYou
793,Rikitea,PF,72.43,light rain,-23.1203,-134.9692,People ThankYou
794,Kahului,US,78.84,few clouds,20.8947,-156.47,Maui Seaside Hotel
798,East London,ZA,59.13,broken clouds,-33.0153,27.9116,Tu Casa
799,Hilo,US,73.13,light rain,19.7297,-155.09,Hilo Hawaiian Hotel
800,Mayo,US,79.11,scattered clouds,38.8876,-76.5119,Resorts Resource Group International
802,Vaini,TO,71.76,broken clouds,-21.2,-175.2,Keleti Beach Resort
803,Namibe,AO,63.54,clear sky,-15.1961,12.1522,Hotel Chik Chik Namibe
806,Bontang,ID,77.7,broken clouds,0.1333,117.5,KOPKAR Hotel Bintang Sintuk
808,Vila Franca Do Campo,PT,73.81,scattered clouds,37.7167,-25.4333,Pestana Bahia Praia
809,Bredasdorp,ZA,51.28,broken clouds,-34.5322,20.0403,Bredasdorp Country Manor
811,Puerto Ayora,EC,71.98,overcast clouds,-0.7393,-90.3518,Finch Bay Galapagos Hotel
812,Port Alfred,ZA,57.81,broken clouds,-33.5906,26.891,The Halyards Hotel
813,Upata,VE,85.19,scattered clouds,8.0086,-62.3989,Posada Villa Nela
816,Jamestown,US,74.17,clear sky,42.097,-79.2353,Hampton Inn & Suites Jamestown
817,Sao Joao Da Barra,BR,87.89,overcast clouds,-21.6403,-41.0511,Pousada Porto De Canoas
818,Ponta Delgada,PT,74.12,scattered clouds,37.7333,-25.6667,Vila Nova Hotel
819,Hermanus,ZA,53.91,broken clouds,-34.4187,19.2345,Misty Waves Boutique Hotel
820,Sao Bento Do Sul,BR,66.24,overcast clouds,-26.2503,-49.3786,Serra Alta Hotel
823,Cidreira,BR,65.73,broken clouds,-30.1811,-50.2056,Hotel Castelo
825,Cape Town,ZA,56.26,scattered clouds,-33.9258,18.4232,Southern Sun Waterfront Cape Town
826,Wamba,NG,78.98,light rain,8.9333,8.6,Roma Zee Guest House Annex
827,Mahibadhoo,MV,81.75,broken clouds,3.7833,72.9667,Omadhoo Inn
828,Bang Saphan,TH,77.54,overcast clouds,11.2126,99.5117,Ladawan Boutique Hotel
833,Yulara,AU,67.84,clear sky,-25.2406,130.9889,Desert Gardens Hotel - Ayers Rock Resort
834,Hithadhoo,MV,82.96,scattered clouds,-0.6,73.0833,Scoop Guest House
835,Camaqua,BR,71.38,broken clouds,-30.8511,-51.8122,Bartz Hotel
836,Batticaloa,LK,80.55,broken clouds,7.7102,81.6924,Grand Star Guest House
838,Souillac,MU,74.35,scattered clouds,-20.5167,57.5167,Shanti Maurice Resort & Spa
841,New Norfolk,AU,53.1,overcast clouds,-42.7826,147.0587,The Shingles Riverside Cottages
842,Rikitea,PF,72.43,light rain,-23.1203,-134.9692,People ThankYou
843,Mount Gambier,AU,53.51,overcast clouds,-37.8333,140.7667,The Commodore
844,Samarai,PG,79.18,scattered clouds,-10.6167,150.6667,Nuli Sapi
845,Antofagasta,CL,60.08,few clouds,-23.65,-70.4,"Holiday Inn Express Antofagasta, an IHG Hotel"
846,Karratha,AU,72.48,clear sky,-20.7377,116.8463,ibis Styles Karratha
849,Nelson Bay,AU,62.1,clear sky,-32.7167,152.15,Mantra Nelson Bay
850,Nikolskoye,RU,50.02,broken clouds,59.7035,30.7861,Tourist House - Sablino
854,Busselton,AU,51.08,overcast clouds,-33.65,115.3333,Observatory Guest House
855,Porto Novo,BJ,84.02,scattered clouds,6.4965,2.6036,Tour Eiffel Hotel Benin
857,Nikolskoye,RU,50.02,broken clouds,59.7035,30.7861,Tourist House - Sablino
861,Rikitea,PF,72.43,light rain,-23.1203,-134.9692,People ThankYou
864,Bredasdorp,ZA,51.28,broken clouds,-34.5322,20.0403,Bredasdorp Country Manor
866,Hithadhoo,MV,82.96,scattered clouds,-0.6,73.0833,Scoop Guest House
867,Rikitea,PF,72.43,light rain,-23.1203,-134.9692,People ThankYou
868,Arraial Do Cabo,BR,84.16,clear sky,-22.9661,-42.0278,Pousada Porto Praia
869,Port Elizabeth,ZA,52.11,scattered clouds,-33.918,25.5701,39 On Nile Guest House
870,Bubaque,GW,82.85,broken clouds,11.2833,-15.8333,"Casa Dora, Bubaque"
872,Los Llanos De Aridane,ES,73.15,broken clouds,28.6585,-17.9182,Valle Aridane
874,Vangaindrano,MG,71.51,clear sky,-23.35,47.6,Hotel Fanilo
876,Marovoay,MG,77.14,scattered clouds,-16.1,46.6333,Hôtel les Oliviers Marovoay
881,Arraial Do Cabo,BR,84.16,clear sky,-22.9661,-42.0278,Pousada Porto Praia
882,Ribeira Grande,PT,73.8,broken clouds,38.5167,-28.7,Quinta da Meia Eira
883,Bredasdorp,ZA,51.28,broken clouds,-34.5322,20.0403,Bredasdorp Country Manor
884,Mehamn,NO,50.14,overcast clouds,71.0357,27.8492,Mehamn Arctic Hotel AS
885,Hilo,US,73.13,light rain,19.7297,-155.09,Hilo Hawaiian Hotel
886,Nikolskoye,RU,50.02,broken clouds,59.7035,30.7861,Tourist House - Sablino
887,Margate,GB,61.88,moderate rain,51.3813,1.3862,Premier Inn Margate hotel
888,Vaini,TO,71.76,broken clouds,-21.2,-175.2,Keleti Beach Resort
890,Yanam,IN,79.45,few clouds,16.7333,82.2167,The Regency Hotel
891,Cidreira,BR,65.73,broken clouds,-30.1811,-50.2056,Hotel Castelo
892,Klaksvik,FO,50.92,overcast clouds,62.2266,-6.589,Airbnb rooms
893,Rikitea,PF,72.43,light rain,-23.1203,-134.9692,People ThankYou
895,Inhambane,MZ,74.52,overcast clouds,-23.865,35.3833,Oceano
897,Kribi,CM,78.39,few clouds,2.95,9.9167,Les Vagues bleues
900,Sao Filipe,CV,80.13,scattered clouds,14.8961,-24.4956,Hotel Xaguate
902,Marawi,PH,66.65,overcast clouds,7.9986,124.2928,Derogongan Residence
903,Saint-Philippe,RE,71.22,scattered clouds,-21.3585,55.7679,"Chambres d'hôte ""La Trinité"""
905,Bredasdorp,ZA,51.28,broken clouds,-34.5322,20.0403,Bredasdorp Country Manor
908,Marienburg,PL,59.95,overcast clouds,54.0359,19.0266,Hotel Centrum Malbork
911,Rikitea,PF,72.43,light rain,-23.1203,-134.9692,People ThankYou
916,Coquimbo,CL,64.13,clear sky,-29.9533,-71.3436,Punto de encuentro
917,Jamestown,US,74.17,clear sky,42.097,-79.2353,Hampton Inn & Suites Jamestown
919,Colomi,BO,73.42,broken clouds,-17.35,-65.8667,Casa
920,Xiaoshi,CN,58.26,light rain,41.2971,124.1209,Junsheng Fengweilou Farmstay
921,Abonnema,NG,81.16,light rain,4.7084,6.7931,Corper's Lodge Obonoma
922,East London,ZA,59.13,broken clouds,-33.0153,27.9116,Tu Casa
923,Butaritari,KI,82.49,overcast clouds,3.0707,172.7902,Isles Sunset Lodge
928,East London,ZA,59.13,broken clouds,-33.0153,27.9116,Tu Casa
929,Necochea,AR,53.04,light rain,-38.5473,-58.7368,dyd -mar Hotel
931,Chuy,UY,65.17,clear sky,-33.6971,-53.4616,Nuevo Hotel Plaza
933,Ponta Do Sol,PT,77.72,clear sky,32.6667,-17.1,Hotel do Campo
936,Sao Filipe,CV,80.13,scattered clouds,14.8961,-24.4956,Hotel Xaguate
938,Hobart,AU,53.46,heavy intensity drizzle,-42.8794,147.3294,Mantra on Collins Hobart
939,Cap Malheureux,MU,74.46,clear sky,-19.9842,57.6142,Pereybere Hotel & Spa
940,Faya,SA,71.71,overcast clouds,18.3851,42.4509,املاك خالد الشعشوع
942,Hermanus,ZA,53.91,broken clouds,-34.4187,19.2345,Misty Waves Boutique Hotel
943,Iracoubo,GF,84.97,light rain,5.4802,-53.2011,Le Gîte d’Iracoubo
944,Poum,NC,73.71,few clouds,-20.2333,164.0167,Gîte kajeon
946,Cidreira,BR,65.73,broken clouds,-30.1811,-50.2056,Hotel Castelo
947,Sao Joao Da Barra,BR,87.89,overcast clouds,-21.6403,-41.0511,Pousada Porto De Canoas
948,Carnarvon,AU,62.67,clear sky,-24.8667,113.6333,Hospitality Carnarvon
951,Kapaa,US,75.52,broken clouds,22.0752,-159.319,Sheraton Kauai Coconut Beach Resort
952,Rikitea,PF,72.43,light rain,-23.1203,-134.9692,People ThankYou
953,Busselton,AU,51.08,overcast clouds,-33.65,115.3333,Observatory Guest House
955,Atuona,PF,77.95,scattered clouds,-9.8,-139.0333,Villa Enata
957,Bandarbeyla,SO,79.92,scattered clouds,9.4942,50.8122,JABIR HOTEL
959,Dingle,PH,76.84,overcast clouds,10.9995,122.6711,SEGAYA PROPERTY
962,Noumea,NC,75.0,broken clouds,-22.2763,166.4572,Hôtel Le Lagon
963,Carnarvon,AU,62.67,clear sky,-24.8667,113.6333,Hospitality Carnarvon
965,Russell,US,83.79,few clouds,32.3502,-85.1999,Macs
967,Mosquera,CO,69.89,broken clouds,4.7059,-74.2302,Hotel SJ
969,Arraial Do Cabo,BR,84.16,clear sky,-22.9661,-42.0278,Pousada Porto Praia
970,Hobart,AU,53.46,heavy intensity drizzle,-42.8794,147.3294,Mantra on Collins Hobart
971,Port Alfred,ZA,57.81,broken clouds,-33.5906,26.891,The Halyards Hotel
973,Bengkulu,ID,76.84,overcast clouds,-3.8004,102.2655,Grage Hotel Bengkulu
974,Cape Town,ZA,56.26,scattered clouds,-33.9258,18.4232,Southern Sun Waterfront Cape Town
980,Saint George,US,79.27,clear sky,37.1041,-113.5841,Best Western Plus Abbey Inn
981,Vaini,TO,71.76,broken clouds,-21.2,-175.2,Keleti Beach Resort
983,Yenagoa,NG,79.02,light rain,4.9247,6.2642,Aridolf Resort Wellness and Spa
984,Atuona,PF,77.95,scattered clouds,-9.8,-139.0333,Villa Enata
987,Atuona,PF,77.95,scattered clouds,-9.8,-139.0333,Villa Enata
988,Busselton,AU,51.08,overcast clouds,-33.65,115.3333,Observatory Guest House
990,Ribeira Grande,PT,73.8,broken clouds,38.5167,-28.7,Quinta da Meia Eira
992,Kahului,US,78.84,few clouds,20.8947,-156.47,Maui Seaside Hotel
994,Georgetown,MY,80.89,few clouds,5.4112,100.3354,Cititel Penang
998,Puerto Ayora,EC,71.98,overcast clouds,-0.7393,-90.3518,Finch Bay Galapagos Hotel
1000,Jamestown,US,74.17,clear sky,42.097,-79.2353,Hampton Inn & Suites Jamestown
1001,Jamestown,US,74.17,clear sky,42.097,-79.2353,Hampton Inn & Suites Jamestown
1003,Port Alfred,ZA,57.81,broken clouds,-33.5906,26.891,The Halyards Hotel
1006,Mayo,US,79.11,scattered clouds,38.8876,-76.5119,Resorts Resource Group International
1008,Rochefort,FR,64.56,overcast clouds,45.9167,-1.0,Hôtel de France Citotel
1013,Surt,LY,76.39,clear sky,31.2089,16.5887,الهادي ابوشعاله سرت
1014,Butaritari,KI,82.49,overcast clouds,3.0707,172.7902,Isles Sunset Lodge
1015,Georgetown,MY,80.89,few clouds,5.4112,100.3354,Cititel Penang
1016,Hermanus,ZA,53.91,broken clouds,-34.4187,19.2345,Misty Waves Boutique Hotel
1017,Saint-Philippe,RE,71.22,scattered clouds,-21.3585,55.7679,"Chambres d'hôte ""La Trinité"""
1018,Vaini,TO,71.76,broken clouds,-21.2,-175.2,Keleti Beach Resort
1019,Hithadhoo,MV,82.96,scattered clouds,-0.6,73.0833,Scoop Guest House
1020,Coquimbo,CL,64.13,clear sky,-29.9533,-71.3436,Punto de encuentro
1022,Carnarvon,AU,62.67,clear sky,-24.8667,113.6333,Hospitality Carnarvon
1023,Rikitea,PF,72.43,light rain,-23.1203,-134.9692,People ThankYou
1024,Castro,BR,71.6,light rain,-24.7911,-50.0119,CHACARA BAILLY
1025,Hobart,AU,53.46,heavy intensity drizzle,-42.8794,147.3294,Mantra on Collins Hobart
1026,Avarua,CK,73.45,moderate rain,-21.2078,-159.775,Paradise Inn
1027,Faanui,PF,79.29,scattered clouds,-16.4833,-151.75,Bora-Bora Pearl Beach Resort & Spa
1028,Isangel,VU,72.64,light rain,-19.55,169.2667,Tanna Lodge
1029,Paka,MY,75.13,overcast clouds,4.6374,103.4368,RUMBIA RESORT VILLA
1031,Vao,NC,71.15,light rain,-22.6667,167.4833,Hotel Kou-Bugny
1032,Pangkalanbuun,ID,73.67,light rain,-2.6833,111.6167,Grand Kecubung Hotel
1034,Castro,BR,71.6,light rain,-24.7911,-50.0119,CHACARA BAILLY
1035,Bethel,US,73.78,clear sky,41.3712,-73.414,Courtyard by Marriott Danbury
1036,La Rioja,ES,69.04,overcast clouds,42.25,-2.5,Casa Concejos
1037,Mercedes,AR,65.52,overcast clouds,-34.6515,-59.4307,Posada del Inti Centro
1039,Laguna,US,83.44,clear sky,38.421,-121.4238,"Holiday Inn Express & Suites Elk Grove Central - Hwy 99, an IHG Hotel"
1042,Punto Fijo,VE,89.02,overcast clouds,11.6956,-70.1996,Santa Fe Inn Hotel
1046,Hami,CN,54.09,overcast clouds,42.8,93.45,Laoyutang Resort
1047,Lucapa,AO,64.99,light rain,-8.4192,20.7447,Residência Ulisses Dos Santos
1050,Salalah,OM,82.49,scattered clouds,17.0151,54.0924,HAMDAN PLAZA HOTEL SALALAH
1051,Russell,US,83.79,few clouds,32.3502,-85.1999,Macs
1052,Sri Aman,MY,75.25,overcast clouds,1.2376,111.4621,Seri Simanggang Hotel
1053,Faanui,PF,79.29,scattered clouds,-16.4833,-151.75,Bora-Bora Pearl Beach Resort & Spa
1054,Jamestown,US,74.17,clear sky,42.097,-79.2353,Hampton Inn & Suites Jamestown
1056,Auki,SB,77.31,broken clouds,-8.7676,160.7034,Auki Motel
1057,Ribeira Grande,PT,73.8,broken clouds,38.5167,-28.7,Quinta da Meia Eira
1058,Carnarvon,AU,62.67,clear sky,-24.8667,113.6333,Hospitality Carnarvon
1060,Atuona,PF,77.95,scattered clouds,-9.8,-139.0333,Villa Enata
1062,New Norfolk,AU,53.1,overcast clouds,-42.7826,147.0587,The Shingles Riverside Cottages
1063,Hermanus,ZA,53.91,broken clouds,-34.4187,19.2345,Misty Waves Boutique Hotel
1065,Labuan,MY,77.36,few clouds,5.2767,115.2417,Tiara Labuan Hotel
1066,Puerto Ayora,EC,71.98,overcast clouds,-0.7393,-90.3518,Finch Bay Galapagos Hotel
1067,Busselton,AU,51.08,overcast clouds,-33.65,115.3333,Observatory Guest House
1068,New Norfolk,AU,53.1,overcast clouds,-42.7826,147.0587,The Shingles Riverside Cottages
1069,Astorga,BR,66.6,overcast clouds,-23.2325,-51.6656,Rancho Jads
1070,Gonbad-E Qabus,IR,70.75,clear sky,37.25,55.1672,Samin Building
1071,Hermanus,ZA,53.91,broken clouds,-34.4187,19.2345,Misty Waves Boutique Hotel
1073,Cidreira,BR,65.73,broken clouds,-30.1811,-50.2056,Hotel Castelo
1074,Hobart,AU,53.46,heavy intensity drizzle,-42.8794,147.3294,Mantra on Collins Hobart
1075,Ambilobe,MG,74.89,scattered clouds,-13.2,49.05,Hôtel & Restaurant DIANA Ambilobe
1076,Butaritari,KI,82.49,overcast clouds,3.0707,172.7902,Isles Sunset Lodge
1078,New Castle,US,74.48,clear sky,41.0037,-80.347,Hampton Inn & Suites New Castle
1079,Karratha,AU,72.48,clear sky,-20.7377,116.8463,ibis Styles Karratha
1080,Meridian,US,63.45,clear sky,43.6121,-116.3915,Courtyard by Marriott Boise West/Meridian
1081,Kohlu,PK,79.83,overcast clouds,29.8962,69.252,B &R Rest House
1085,Vaini,TO,71.76,broken clouds,-21.2,-175.2,Keleti Beach Resort
1086,Wangaratta,AU,53.17,broken clouds,-36.3667,146.3333,Quality Hotel Wangaratta Gateway
1087,Kedougou,SN,83.1,broken clouds,12.5579,-12.1743,Relais de Kédougou
1088,Paicandu,BR,84.04,moderate rain,-23.4575,-52.0486,Dallas Motel 4 (Paiçandu)
1089,Sioux Lookout,CA,59.38,light intensity drizzle,50.1001,-91.917,Knobby's Fly-In Camps
1093,Vaini,TO,71.76,broken clouds,-21.2,-175.2,Keleti Beach Resort
1094,Ballina,AU,56.79,few clouds,-28.8667,153.5667,Ramada Hotel & Suites by Wyndham Ballina Byron
1095,Manono,CD,78.98,overcast clouds,-7.3,27.4167,Hotel hewa bora
1096,Castro,BR,71.6,light rain,-24.7911,-50.0119,CHACARA BAILLY
1097,Vaini,TO,71.76,broken clouds,-21.2,-175.2,Keleti Beach Resort
1099,Hithadhoo,MV,82.96,scattered clouds,-0.6,73.0833,Scoop Guest House
1100,Ponta Do Sol,PT,77.72,clear sky,32.6667,-17.1,Hotel do Campo
1101,Busselton,AU,51.08,overcast clouds,-33.65,115.3333,Observatory Guest House
1102,Pozoblanco,ES,77.58,clear sky,38.3791,-4.8483,Hotel Nomada
1103,Viseu,PT,66.85,overcast clouds,40.661,-7.9097,Montebelo Viseu Congress Hotel
1105,Luang Prabang,LA,72.99,overcast clouds,19.8856,102.1347,Villa Oasis
1106,Portland,US,59.9,mist,45.5234,-122.6762,Embassy Suites by Hilton Portland Downtown
1107,Kahului,US,78.84,few clouds,20.8947,-156.47,Maui Seaside Hotel
1109,Vaini,TO,71.76,broken clouds,-21.2,-175.2,Keleti Beach Resort
1111,New Norfolk,AU,53.1,overcast clouds,-42.7826,147.0587,The Shingles Riverside Cottages
1112,Port Alfred,ZA,57.81,broken clouds,-33.5906,26.891,The Halyards Hotel
1113,Busselton,AU,51.08,overcast clouds,-33.65,115.3333,Observatory Guest House
1115,Souillac,MU,74.35,scattered clouds,-20.5167,57.5167,Shanti Maurice Resort & Spa
1116,Hilo,US,73.13,light rain,19.7297,-155.09,Hilo Hawaiian Hotel
1119,Ponta Do Sol,PT,77.72,clear sky,32.6667,-17.1,Hotel do Campo
1123,Lang Son,VN,73.53,broken clouds,21.8333,106.7333,Khai Nga Hotel
1126,Rikitea,PF,72.43,light rain,-23.1203,-134.9692,People ThankYou
1127,Geraldton,AU,59.41,overcast clouds,-28.7667,114.6,Broadwater Mariner Resort
1128,Puerto Del Rosario,ES,80.28,clear sky,28.5004,-13.8627,Hotel JM Puerto del Rosario
1129,Bambous Virieux,MU,74.21,scattered clouds,-20.3428,57.7575,Casa Tia Villa
1135,Kaeo,NZ,54.32,broken clouds,-35.1,173.7833,Bushido Lodge
1137,Rocha,UY,67.44,clear sky,-34.4833,-54.3333,Beleza Pura B&B
1138,Hithadhoo,MV,82.96,scattered clouds,-0.6,73.0833,Scoop Guest House
1141,Thompson,CA,57.36,broken clouds,55.7435,-97.8558,Burntwood Hotel
1142,Arraial Do Cabo,BR,84.16,clear sky,-22.9661,-42.0278,Pousada Porto Praia
1143,Trairi,BR,86.47,overcast clouds,-3.2778,-39.2689,janelas do mar
1144,Cape Town,ZA,56.26,scattered clouds,-33.9258,18.4232,Southern Sun Waterfront Cape Town
1146,Lapeer,US,77.0,clear sky,43.0514,-83.3188,"Holiday Inn Express Lapeer, an IHG Hotel"
1147,Hilo,US,73.13,light rain,19.7297,-155.09,Hilo Hawaiian Hotel
1148,Chapais,CA,53.38,few clouds,49.7834,-74.8492,Hôtel Opémiska
1149,Korla,CN,57.83,overcast clouds,41.7597,86.1469,Gulisitan Hotel
1151,Busselton,AU,51.08,overcast clouds,-33.65,115.3333,Observatory Guest House
1152,Bangkalan,ID,80.55,overcast clouds,-7.0455,112.7351,SPOT ON 2591 Griya Demangan Syariah
1153,Hobart,AU,53.46,heavy intensity drizzle,-42.8794,147.3294,Mantra on Collins Hobart
1154,Rocha,UY,67.44,clear sky,-34.4833,-54.3333,Beleza Pura B&B
1155,Alghero,IT,73.49,few clouds,40.5589,8.3181,Villa Las Tronas Hotel & Spa
1158,Kapaa,US,75.52,broken clouds,22.0752,-159.319,Sheraton Kauai Coconut Beach Resort
1159,Bud,US,71.31,moderate rain,39.447,-86.1758,Ted McQuinn Trust
1160,Avarua,CK,73.45,moderate rain,-21.2078,-159.775,Paradise Inn
1161,Cape Town,ZA,56.26,scattered clouds,-33.9258,18.4232,Southern Sun Waterfront Cape Town
1162,Bredasdorp,ZA,51.28,broken clouds,-34.5322,20.0403,Bredasdorp Country Manor
1163,Puerto Ayora,EC,71.98,overcast clouds,-0.7393,-90.3518,Finch Bay Galapagos Hotel
1164,Abha,SA,71.42,few clouds,18.2164,42.5053,Abha Hotel
1165,Castle Rock,US,65.71,scattered clouds,39.3722,-104.8561,Best Western Plus Castle Rock
1166,Kelso,US,59.31,clear sky,46.1468,-122.9084,GuestHouse Kelso Longview
1167,Chuy,UY,65.17,clear sky,-33.6971,-53.4616,Nuevo Hotel Plaza
1168,Vaini,TO,71.76,broken clouds,-21.2,-175.2,Keleti Beach Resort
1171,Constitucion,CL,56.46,clear sky,-35.3333,-72.4167,Hotel Boutique Las Azucenas
1172,Port Alfred,ZA,57.81,broken clouds,-33.5906,26.891,The Halyards Hotel
1173,Dwarka,IN,81.95,broken clouds,22.2394,68.9678,Hotel Narayan Avezika Comfort
1175,Atuona,PF,77.95,scattered clouds,-9.8,-139.0333,Villa Enata
1176,Kapaa,US,75.52,broken clouds,22.0752,-159.319,Sheraton Kauai Coconut Beach Resort
1177,Benxi,CN,59.38,light rain,41.2886,123.765,Yaju Business Hotel
1178,Atambua,ID,74.28,overcast clouds,-9.1061,124.8925,Pastori 1 Jemaat Polycarpus
1179,Vaini,TO,71.76,broken clouds,-21.2,-175.2,Keleti Beach Resort
1181,Yeppoon,AU,60.58,clear sky,-23.1333,150.7333,Villa Mar Colina
1183,Bandarbeyla,SO,79.92,scattered clouds,9.4942,50.8122,JABIR HOTEL
1186,Oskarshamn,SE,55.17,overcast clouds,57.2645,16.4484,Best Western Hotel Corallen
1188,Hornepayne,CA,55.26,overcast clouds,49.2138,-84.7705,Kay-Vee Lodge Ltd
1189,Gagra,GE,58.14,scattered clouds,43.3283,40.2239,Hotel KORSHIKOFF
1193,Hilo,US,73.13,light rain,19.7297,-155.09,Hilo Hawaiian Hotel
1194,New Norfolk,AU,53.1,overcast clouds,-42.7826,147.0587,The Shingles Riverside Cottages
1195,Atuona,PF,77.95,scattered clouds,-9.8,-139.0333,Villa Enata
1196,Broome,US,73.09,clear sky,42.2506,-75.833,Chenango Valley State Park
1199,Busselton,AU,51.08,overcast clouds,-33.65,115.3333,Observatory Guest House
1200,Luwuk,ID,76.5,broken clouds,-0.9516,122.7875,Hotel Santika Luwuk
1201,Zhuhai,CN,86.11,light rain,22.2769,113.5678,Nanyang Seascape Hotel Zhuhai Hotel
1203,Sao Joao Da Barra,BR,87.89,overcast clouds,-21.6403,-41.0511,Pousada Porto De Canoas
1204,Cabo San Lucas,MX,81.95,broken clouds,22.8909,-109.9124,Hotel Tesoro Los Cabos
1205,Praia Da Vitoria,PT,77.25,scattered clouds,38.7333,-27.0667,Hotel Branco I
1206,Kapaa,US,75.52,broken clouds,22.0752,-159.319,Sheraton Kauai Coconut Beach Resort
1207,Sioux Lookout,CA,59.38,light intensity drizzle,50.1001,-91.917,Knobby's Fly-In Camps
1210,Hobart,AU,53.46,heavy intensity drizzle,-42.8794,147.3294,Mantra on Collins Hobart
1211,Ribeira Grande,PT,73.8,broken clouds,38.5167,-28.7,Quinta da Meia Eira
1213,Rikitea,PF,72.43,light rain,-23.1203,-134.9692,People ThankYou
1214,East London,ZA,59.13,broken clouds,-33.0153,27.9116,Tu Casa
1217,Komsomolskiy,UZ,56.12,overcast clouds,40.4272,71.7189,Ikathouse
1218,Cidreira,BR,65.73,broken clouds,-30.1811,-50.2056,Hotel Castelo
1220,Mountain Home,US,61.54,clear sky,43.133,-115.6912,Mountain Home Inn
1221,Hermanus,ZA,53.91,broken clouds,-34.4187,19.2345,Misty Waves Boutique Hotel
1222,Victoria,HK,86.38,light rain,22.2855,114.1577,Mini Hotel Central
1224,Busselton,AU,51.08,overcast clouds,-33.65,115.3333,Observatory Guest House
1225,Bethel,US,73.78,clear sky,41.3712,-73.414,Courtyard by Marriott Danbury
1226,San Andres,CO,87.82,scattered clouds,12.5847,-81.7006,Hotel Arena Blanca
1227,Necochea,AR,53.04,light rain,-38.5473,-58.7368,dyd -mar Hotel
1229,Hobart,AU,53.46,heavy intensity drizzle,-42.8794,147.3294,Mantra on Collins Hobart
1230,Constitucion,CL,56.46,clear sky,-35.3333,-72.4167,Hotel Boutique Las Azucenas
1231,Isangel,VU,72.64,light rain,-19.55,169.2667,Tanna Lodge
1233,Bredasdorp,ZA,51.28,broken clouds,-34.5322,20.0403,Bredasdorp Country Manor
1236,Vaini,TO,71.76,broken clouds,-21.2,-175.2,Keleti Beach Resort
1237,Ribeira Grande,PT,73.8,broken clouds,38.5167,-28.7,Quinta da Meia Eira
1239,Saint-Philippe,RE,71.22,scattered clouds,-21.3585,55.7679,"Chambres d'hôte ""La Trinité"""
1241,Dharmadam,IN,78.93,moderate rain,11.7833,75.4333,Samudra Homes
1242,Butaritari,KI,82.49,overcast clouds,3.0707,172.7902,Isles Sunset Lodge
1243,Rikitea,PF,72.43,light rain,-23.1203,-134.9692,People ThankYou
1246,Cape Town,ZA,56.26,scattered clouds,-33.9258,18.4232,Southern Sun Waterfront Cape Town
1247,Kalianget,ID,80.67,overcast clouds,-7.05,113.9333,Pesanggrahan Garam
1248,Kampot,KH,77.05,overcast clouds,10.6167,104.1833,Two Moons Hotel
1250,Arraial Do Cabo,BR,84.16,clear sky,-22.9661,-42.0278,Pousada Porto Praia
1253,Rikitea,PF,72.43,light rain,-23.1203,-134.9692,People ThankYou
1254,Yavatmal,IN,77.85,overcast clouds,20.4,78.1333,Palash Inn
1255,Rangapara,IN,76.28,scattered clouds,26.8167,92.65,Bidhan
1256,Busselton,AU,51.08,overcast clouds,-33.65,115.3333,Observatory Guest House
1257,Nikolskoye,RU,50.02,broken clouds,59.7035,30.7861,Tourist House - Sablino
1260,Tura,IN,74.77,few clouds,25.5198,90.2201,Hotel RIKMAN Continental
1261,Port Alfred,ZA,57.81,broken clouds,-33.5906,26.891,The Halyards Hotel
1262,Sohag,EG,82.56,clear sky,26.557,31.6948,Civil Registry - Sohag 1
1264,Butaritari,KI,82.49,overcast clouds,3.0707,172.7902,Isles Sunset Lodge
1266,Fortuna,US,58.93,overcast clouds,40.5982,-124.1573,Super 8 by Wyndham Fortuna
1267,La Romana,DO,85.73,thunderstorm,18.4273,-68.9728,Casa de Campo Resort and Villas
1269,La Paz,BO,67.98,scattered clouds,-16.5,-68.15,Hotel Sagarnaga
1271,Obihiro,JP,55.51,scattered clouds,42.9172,143.2044,Tokachi Gardens Hotel
1275,Jamestown,US,74.17,clear sky,42.097,-79.2353,Hampton Inn & Suites Jamestown
1276,Denpasar,ID,78.46,scattered clouds,-8.65,115.2167,ASTON Denpasar Hotel & Convention Center
1277,Kavieng,PG,81.12,overcast clouds,-2.5744,150.7967,Nusa Island Retreat
1278,Cape Town,ZA,56.26,scattered clouds,-33.9258,18.4232,Southern Sun Waterfront Cape Town
1279,Atuona,PF,77.95,scattered clouds,-9.8,-139.0333,Villa Enata
1280,Hermanus,ZA,53.91,broken clouds,-34.4187,19.2345,Misty Waves Boutique Hotel
1283,El Alto,PE,70.7,broken clouds,-4.2714,-81.2147,Black Marlin Restaurant & Hospedaje
1284,Avarua,CK,73.45,moderate rain,-21.2078,-159.775,Paradise Inn
1285,Lagoa,PT,71.28,broken clouds,39.05,-27.9833,Casa Das Faias
1286,Lebu,CL,51.22,broken clouds,-37.6167,-73.65,Hostal Las Lilas
1287,Mount Isa,AU,64.17,clear sky,-20.7333,139.5,ibis Styles Mt Isa Verona
1290,Bambous Virieux,MU,74.21,scattered clouds,-20.3428,57.7575,Casa Tia Villa
1291,Samarai,PG,79.18,scattered clouds,-10.6167,150.6667,Nuli Sapi
1292,Kieta,PG,78.03,overcast clouds,-6.2167,155.6333,Uruna Bay Retreat
1293,Kaeo,NZ,54.32,broken clouds,-35.1,173.7833,Bushido Lodge
1294,Mahanoro,MG,70.47,clear sky,-19.9,48.8,BUNGALOW MAHAMANINA
1295,Rikitea,PF,72.43,light rain,-23.1203,-134.9692,People ThankYou
1296,Bredasdorp,ZA,51.28,broken clouds,-34.5322,20.0403,Bredasdorp Country Manor
1298,Hermanus,ZA,53.91,broken clouds,-34.4187,19.2345,Misty Waves Boutique Hotel
1299,Hermanus,ZA,53.91,broken clouds,-34.4187,19.2345,Misty Waves Boutique Hotel
1300,Beyla,GN,69.82,light rain,8.6833,-8.6333,DIAN SINKO
1301,Klaksvik,FO,50.92,overcast clouds,62.2266,-6.589,Airbnb rooms
1304,Bumba,CD,70.2,light rain,2.1833,22.4667,Père Carlos
1305,Lata,PT,70.03,overcast clouds,40.1629,-8.3327,Casa Maquia
1307,Boffa,GN,76.5,light rain,10.1667,-14.0333,Hôtel Niara Belly
1311,Bredasdorp,ZA,51.28,broken clouds,-34.5322,20.0403,Bredasdorp Country Manor
1312,Salina,US,70.25,few clouds,38.8403,-97.6114,"Holiday Inn Express & Suites Salina, an IHG Hotel"
1313,East London,ZA,59.13,broken clouds,-33.0153,27.9116,Tu Casa
1314,Rio Grande,BR,68.95,clear sky,-32.035,-52.0986,Hotel Atlântico Rio Grande
1316,Tura,IN,74.77,few clouds,25.5198,90.2201,Hotel RIKMAN Continental
1318,Ribeira Grande,PT,73.8,broken clouds,38.5167,-28.7,Quinta da Meia Eira
1319,New Norfolk,AU,53.1,overcast clouds,-42.7826,147.0587,The Shingles Riverside Cottages
1321,Zarand,IR,71.78,scattered clouds,30.8127,56.564,خونه بابا حمید
1322,Judaberg,NO,55.26,broken clouds,59.1659,5.8732,Utsyn misjonssenter
1323,Dawei,MM,77.05,heavy intensity rain,14.0833,98.2,Hotel Dawei
1324,Lasa,IT,62.51,broken clouds,46.6166,10.7002,Pension Feldgärtenhof
1325,Ugoofaaru,MV,81.88,moderate rain,5.6667,73.0,Ungoofaaru Inn
1326,Tautira,PF,78.82,scattered clouds,-17.7333,-149.15,Pension Oaoa
1331,Thompson,CA,57.36,broken clouds,55.7435,-97.8558,Burntwood Hotel
1333,Guerrero Negro,MX,79.56,clear sky,27.9769,-114.0611,"Casa Laguna, Bed & Breakfast"
1334,Butaritari,KI,82.49,overcast clouds,3.0707,172.7902,Isles Sunset Lodge
1335,Rikitea,PF,72.43,light rain,-23.1203,-134.9692,People ThankYou
1336,Port Alfred,ZA,57.81,broken clouds,-33.5906,26.891,The Halyards Hotel
1337,Hilo,US,73.13,light rain,19.7297,-155.09,Hilo Hawaiian Hotel
1338,Hithadhoo,MV,82.96,scattered clouds,-0.6,73.0833,Scoop Guest House
1339,San Patricio,US,85.89,overcast clouds,28.017,-97.5169,"Motel 6 Sinton, TX"
1341,Vaini,TO,71.76,broken clouds,-21.2,-175.2,Keleti Beach Resort
1342,Hue,VN,80.71,few clouds,16.4667,107.6,Saigon Morin Hotel
1344,Rawson,AR,50.04,overcast clouds,-43.3002,-65.1023,Hosteria Sampedro
1347,Rikitea,PF,72.43,light rain,-23.1203,-134.9692,People ThankYou
1348,Nuqui,CO,83.73,light rain,5.7125,-77.2708,Hotel Nuquimar
1349,Rikitea,PF,72.43,light rain,-23.1203,-134.9692,People ThankYou
1351,Ponta Do Sol,PT,77.72,clear sky,32.6667,-17.1,Hotel do Campo
1353,Kumluca,TR,75.96,few clouds,36.3703,30.2869,TurkuazKöy
1354,Vaini,TO,71.76,broken clouds,-21.2,-175.2,Keleti Beach Resort
1355,Tautira,PF,78.82,scattered clouds,-17.7333,-149.15,Pension Oaoa
1356,Rikitea,PF,72.43,light rain,-23.1203,-134.9692,People ThankYou
1357,Atuona,PF,77.95,scattered clouds,-9.8,-139.0333,Villa Enata
1358,Hilo,US,73.13,light rain,19.7297,-155.09,Hilo Hawaiian Hotel
1359,Tura,IN,74.77,few clouds,25.5198,90.2201,Hotel RIKMAN Continental
1361,Port Alfred,ZA,57.81,broken clouds,-33.5906,26.891,The Halyards Hotel
1364,Kapaa,US,75.52,broken clouds,22.0752,-159.319,Sheraton Kauai Coconut Beach Resort
1366,Kapaa,US,75.52,broken clouds,22.0752,-159.319,Sheraton Kauai Coconut Beach Resort
1367,Busselton,AU,51.08,overcast clouds,-33.65,115.3333,Observatory Guest House
1368,Busselton,AU,51.08,overcast clouds,-33.65,115.3333,Observatory Guest House
1372,San Quintin,MX,79.63,overcast clouds,30.4833,-115.95,Don Eddie's Sport Fishing Center
1374,Castro,BR,71.6,light rain,-24.7911,-50.0119,CHACARA BAILLY
1375,Adwa,ET,70.81,overcast clouds,14.1646,38.8955,Maay Assa Hotel
1377,Kindu,CD,70.77,overcast clouds,-2.95,25.95,Résidence Okanda
1378,Vaini,TO,71.76,broken clouds,-21.2,-175.2,Keleti Beach Resort
1380,Aguimes,ES,79.66,few clouds,27.9054,-15.4461,Hotel Villa de Aguimes
1381,Dingle,PH,76.84,overcast clouds,10.9995,122.6711,SEGAYA PROPERTY
1382,Chuy,UY,65.17,clear sky,-33.6971,-53.4616,Nuevo Hotel Plaza
1386,Chuy,UY,65.17,clear sky,-33.6971,-53.4616,Nuevo Hotel Plaza
1387,Vaini,TO,71.76,broken clouds,-21.2,-175.2,Keleti Beach Resort
1388,Georgetown,MY,80.89,few clouds,5.4112,100.3354,Cititel Penang
1390,Butaritari,KI,82.49,overcast clouds,3.0707,172.7902,Isles Sunset Lodge
1391,Rikitea,PF,72.43,light rain,-23.1203,-134.9692,People ThankYou
1392,Vaini,TO,71.76,broken clouds,-21.2,-175.2,Keleti Beach Resort
1393,Saint George,US,79.27,clear sky,37.1041,-113.5841,Best Western Plus Abbey Inn
1394,Mehamn,NO,50.14,overcast clouds,71.0357,27.8492,Mehamn Arctic Hotel AS
1395,Tukrah,LY,72.07,clear sky,32.5341,20.5791,Lagrota restaurant
1397,Port Macquarie,AU,58.96,scattered clouds,-31.4333,152.9167,Rydges Port Macquarie
1398,Narasannapeta,IN,80.38,scattered clouds,18.4167,84.05,G.lingaraju home
1399,Kimbe,PG,75.38,overcast clouds,-5.5502,150.1429,Kimbe Bay Hotel
1402,Pangkalanbuun,ID,73.67,light rain,-2.6833,111.6167,Grand Kecubung Hotel
1404,Dabakala,CI,84.78,broken clouds,8.3667,-4.4333,Hôtel Campement
1405,Saint-Philippe,RE,71.22,scattered clouds,-21.3585,55.7679,"Chambres d'hôte ""La Trinité"""
1407,Noumea,NC,75.0,broken clouds,-22.2763,166.4572,Hôtel Le Lagon
1408,Atuona,PF,77.95,scattered clouds,-9.8,-139.0333,Villa Enata
1409,Bengkulu,ID,76.84,overcast clouds,-3.8004,102.2655,Grage Hotel Bengkulu
1411,Georgetown,MY,80.89,few clouds,5.4112,100.3354,Cititel Penang
1412,Wencheng,CN,76.39,light rain,33.0559,113.7978,Ruyi Hostel
1415,Alofi,NU,73.29,overcast clouds,-19.0595,-169.9187,Taloa Heights
1416,Hobart,AU,53.46,heavy intensity drizzle,-42.8794,147.3294,Mantra on Collins Hobart
1417,La Rioja,ES,69.04,overcast clouds,42.25,-2.5,Casa Concejos
1418,Hermanus,ZA,53.91,broken clouds,-34.4187,19.2345,Misty Waves Boutique Hotel
1419,Cam Ranh,VN,80.56,few clouds,11.9214,109.1591,OYO 598 Peony Hotel
1420,Hilo,US,73.13,light rain,19.7297,-155.09,Hilo Hawaiian Hotel
1421,Atuona,PF,77.95,scattered clouds,-9.8,-139.0333,Villa Enata
1422,Ankpa,NG,78.96,light rain,7.3706,7.6253,AA Suites
1424,Nikolskoye,RU,50.02,broken clouds,59.7035,30.7861,Tourist House - Sablino
1427,Carnarvon,AU,62.67,clear sky,-24.8667,113.6333,Hospitality Carnarvon
1429,Kapaa,US,75.52,broken clouds,22.0752,-159.319,Sheraton Kauai Coconut Beach Resort
1432,Avarua,CK,73.45,moderate rain,-21.2078,-159.775,Paradise Inn
1433,Lorengau,PG,79.65,few clouds,-2.0226,147.2712,Lorengau Harbourside Hotel
1435,Bredasdorp,ZA,51.28,broken clouds,-34.5322,20.0403,Bredasdorp Country Manor
1436,Roald,NO,56.91,clear sky,62.5833,6.1333,Flem Cabins
1438,Mar Del Plata,AR,64.42,light rain,-38.0023,-57.5575,Gran Hotel Mar del Plata
1440,Lompoc,US,87.13,clear sky,34.6391,-120.4579,"Holiday Inn Express Lompoc, an IHG Hotel"
1441,Hambantota,LK,79.92,few clouds,6.1241,81.1185,Bungalow 63
1442,Varberg,SE,56.05,overcast clouds,57.1056,12.2508,Varbergs Kusthotell
1443,Kavaratti,IN,82.08,overcast clouds,10.5669,72.642,Hotels in Lakshadweep Islands
1444,San Felipe,VE,86.14,broken clouds,10.3399,-68.7425,Posada Llovizna Rodríguez
1446,Mahebourg,MU,74.25,scattered clouds,-20.4081,57.7,Shandrani Beachcomber Resort & Spa
1449,Velasco Ibarra,EC,87.73,overcast clouds,-1.05,-79.6167,White Room Studio
1450,Manado,ID,75.97,scattered clouds,1.487,124.8455,Aryaduta Hotel
1451,Jalalabad,AF,83.21,clear sky,34.4265,70.4515,انصاف چهاردهي هوټل
1452,Rockland,US,74.3,overcast clouds,41.1668,-74.0496,National Camp Association
1454,Sulina,RO,57.27,scattered clouds,45.1559,29.6536,Hotel Delta Est
1455,Lompoc,US,87.13,clear sky,34.6391,-120.4579,"Holiday Inn Express Lompoc, an IHG Hotel"
1456,Cape Town,ZA,56.26,scattered clouds,-33.9258,18.4232,Southern Sun Waterfront Cape Town
1458,Lagoa,PT,71.28,broken clouds,39.05,-27.9833,Casa Das Faias
1459,East London,ZA,59.13,broken clouds,-33.0153,27.9116,Tu Casa
1460,Bako,ET,62.47,light rain,5.7833,36.5667,Goh Hotel
1461,Hamilton,US,79.74,haze,39.1834,-84.5333,Six Acres Bed & Breakfast
1463,Laguna,US,83.44,clear sky,38.421,-121.4238,"Holiday Inn Express & Suites Elk Grove Central - Hwy 99, an IHG Hotel"
1464,Yarmouth,US,72.45,clear sky,41.7057,-70.2286,Blue Rock Resort
1465,Las Palmas,ES,74.19,clear sky,28.4204,-14.0131,Casillas De Morales 59.
1466,Torbay,CA,65.28,broken clouds,47.6666,-52.7314,Gallows Cove
1467,Busselton,AU,51.08,overcast clouds,-33.65,115.3333,Observatory Guest House
1468,Havelock,US,80.98,clear sky,34.8791,-76.9013,Sherwood Motel
1472,Bredasdorp,ZA,51.28,broken clouds,-34.5322,20.0403,Bredasdorp Country Manor
1474,Avarua,CK,73.45,moderate rain,-21.2078,-159.775,Paradise Inn
1476,Nikolskoye,RU,50.02,broken clouds,59.7035,30.7861,Tourist House - Sablino
1477,Moyale,KE,76.98,overcast clouds,3.5167,39.0584,La Tahzan Guest House
1478,Port Blair,IN,80.91,light rain,11.6667,92.75,"Welcomhotel By ITC Hotels, Bay Island, Port Blair"
1479,Wewak,PG,79.07,overcast clouds,-3.5534,143.6268,In Wewak Boutique Hotel
1480,Sioux Lookout,CA,59.38,light intensity drizzle,50.1001,-91.917,Knobby's Fly-In Camps
1484,Nikolskoye,RU,50.02,broken clouds,59.7035,30.7861,Tourist House - Sablino
1486,Arraial Do Cabo,BR,84.16,clear sky,-22.9661,-42.0278,Pousada Porto Praia
1487,Rikitea,PF,72.43,light rain,-23.1203,-134.9692,People ThankYou
1489,Lebu,CL,51.22,broken clouds,-37.6167,-73.65,Hostal Las Lilas
1493,Richards Bay,ZA,66.27,light rain,-28.783,32.0377,BON Hotel Waterfront Richards Bay
1494,Mahebourg,MU,74.25,scattered clouds,-20.4081,57.7,Shandrani Beachcomber Resort & Spa
1495,Mikuni,JP,62.51,clear sky,36.2171,136.1519,Haiya
1496,Markova,UA,51.39,clear sky,48.6758,24.4138,Vas.VOM
1497,Poso,ID,77.54,overcast clouds,-1.3959,120.7524,Hotel 77 Poso
1498,Bassano,CA,61.03,broken clouds,50.7834,-112.4685,Imperial Hunter Hotel
1500,Dumai,ID,73.15,overcast clouds,1.6833,101.45,Grand Zuri Dumai
1501,Rikitea,PF,72.43,light rain,-23.1203,-134.9692,People ThankYou
1502,Avarua,CK,73.45,moderate rain,-21.2078,-159.775,Paradise Inn
1503,Khash,IR,70.36,overcast clouds,28.2211,61.2158,دفتر پیشخوان دولت جمال زهی (خالد)
1506,Harper,LR,79.5,overcast clouds,4.375,-7.7169,Screensaver
1511,Gra Liyia,GR,70.12,few clouds,35.0167,25.6833,Diktynna Traditional Villas
1512,Isangel,VU,72.64,light rain,-19.55,169.2667,Tanna Lodge
1513,Bredasdorp,ZA,51.28,broken clouds,-34.5322,20.0403,Bredasdorp Country Manor
1517,Carnarvon,AU,62.67,clear sky,-24.8667,113.6333,Hospitality Carnarvon
1518,Kapaa,US,75.52,broken clouds,22.0752,-159.319,Sheraton Kauai Coconut Beach Resort
1519,Butaritari,KI,82.49,overcast clouds,3.0707,172.7902,Isles Sunset Lodge
1520,Soyo,AO,78.85,broken clouds,-6.1349,12.3689,Hotel Mpampa
1522,Soyo,AO,78.85,broken clouds,-6.1349,12.3689,Hotel Mpampa
1523,Mahebourg,MU,74.25,scattered clouds,-20.4081,57.7,Shandrani Beachcomber Resort & Spa
1524,Cape Town,ZA,56.26,scattered clouds,-33.9258,18.4232,Southern Sun Waterfront Cape Town
1527,Ponta Delgada,PT,74.12,scattered clouds,37.7333,-25.6667,Vila Nova Hotel
1530,Kinablangan,PH,78.06,overcast clouds,7.6947,126.5503,Danny Moreno Property
1532,Lubao,PH,81.14,overcast clouds,14.9167,120.55,Hacienda Gracia
1533,Bambous Virieux,MU,74.21,scattered clouds,-20.3428,57.7575,Casa Tia Villa
1534,Dabakala,CI,84.78,broken clouds,8.3667,-4.4333,Hôtel Campement
1535,Lompoc,US,87.13,clear sky,34.6391,-120.4579,"Holiday Inn Express Lompoc, an IHG Hotel"
1537,Monrovia,LR,80.37,overcast clouds,6.3005,-10.7969,Sunset Inn
1538,Hermanus,ZA,53.91,broken clouds,-34.4187,19.2345,Misty Waves Boutique Hotel
1539,Esperance,AU,56.73,scattered clouds,-33.8667,121.9,Hospitality Esperance
1540,Kashi,CN,70.81,overcast clouds,39.4547,75.9797,帕米尔青年旅舍
1541,Mar Del Plata,AR,64.42,light rain,-38.0023,-57.5575,Gran Hotel Mar del Plata
1542,Alyangula,AU,79.61,overcast clouds,-13.8483,136.4192,Groote Eylandt Lodge
1547,Garowe,SO,86.68,light rain,8.4054,48.4845,Curubo Hotel
1548,Eyl,SO,78.82,few clouds,7.9803,49.8164,Amiin Hotel
1549,Busselton,AU,51.08,overcast clouds,-33.65,115.3333,Observatory Guest House
1550,Port Elizabeth,ZA,52.11,scattered clouds,-33.918,25.5701,39 On Nile Guest House
1551,Esperance,AU,56.73,scattered clouds,-33.8667,121.9,Hospitality Esperance
1553,Spremberg,DE,63.55,broken clouds,51.5697,14.3736,"Hotel ""Zur Post"" Spremberg"
1554,Ko Samui,TH,83.53,overcast clouds,9.5357,99.9357,The Passage Samui Villas & Resort
1555,Busselton,AU,51.08,overcast clouds,-33.65,115.3333,Observatory Guest House
1556,Baie-Comeau,CA,50.0,overcast clouds,49.2168,-68.1489,Travelodge by Wyndham Baie-Comeau
1557,Airai,TL,60.31,overcast clouds,-8.9266,125.4092,Juvinal Martin
1559,East London,ZA,59.13,broken clouds,-33.0153,27.9116,Tu Casa
1561,Rantauprapat,ID,74.61,broken clouds,2.1,99.8333,Permata Land Hotel & Resort
1562,Cape Town,ZA,56.26,scattered clouds,-33.9258,18.4232,Southern Sun Waterfront Cape Town
1563,Cape Town,ZA,56.26,scattered clouds,-33.9258,18.4232,Southern Sun Waterfront Cape Town
1564,Hilo,US,73.13,light rain,19.7297,-155.09,Hilo Hawaiian Hotel
1565,Arraial Do Cabo,BR,84.16,clear sky,-22.9661,-42.0278,Pousada Porto Praia
1568,High Rock,BS,84.22,broken clouds,26.6208,-78.2833,Hideaway Bahamas Beach Club
1569,Pacific Grove,US,82.62,clear sky,36.6177,-121.9166,Lovers Point Inn
1570,Cabo San Lucas,MX,81.95,broken clouds,22.8909,-109.9124,Hotel Tesoro Los Cabos
1571,Flin Flon,CA,60.64,few clouds,54.7682,-101.865,Victoria Inn Flin Flon
1572,Port Alfred,ZA,57.81,broken clouds,-33.5906,26.891,The Halyards Hotel
1573,New Norfolk,AU,53.1,overcast clouds,-42.7826,147.0587,The Shingles Riverside Cottages
1574,Todos Santos,MX,83.75,overcast clouds,23.45,-110.2167,Hotel California Todos Santos
1575,Panalingaan,PH,78.26,light rain,8.7842,117.4231,I Love Panalingaan View Deck
1576,Lebu,CL,51.22,broken clouds,-37.6167,-73.65,Hostal Las Lilas
1580,Busselton,AU,51.08,overcast clouds,-33.65,115.3333,Observatory Guest House
1581,Busselton,AU,51.08,overcast clouds,-33.65,115.3333,Observatory Guest House
1582,Elizabeth City,US,80.06,broken clouds,36.2946,-76.2511,Hampton Inn Elizabeth City
1583,Hilo,US,73.13,light rain,19.7297,-155.09,Hilo Hawaiian Hotel
1584,East London,ZA,59.13,broken clouds,-33.0153,27.9116,Tu Casa
1585,Port Alfred,ZA,57.81,broken clouds,-33.5906,26.891,The Halyards Hotel
1586,Hilo,US,73.13,light rain,19.7297,-155.09,Hilo Hawaiian Hotel
1587,Viedma,AR,57.18,overcast clouds,-40.8135,-62.9967,Hotel Cristal
1588,Avarua,CK,73.45,moderate rain,-21.2078,-159.775,Paradise Inn
1590,Russell,US,83.79,few clouds,32.3502,-85.1999,Macs
1592,Necochea,AR,53.04,light rain,-38.5473,-58.7368,dyd -mar Hotel
1594,Mar Del Plata,AR,64.42,light rain,-38.0023,-57.5575,Gran Hotel Mar del Plata
1595,Alofi,NU,73.29,overcast clouds,-19.0595,-169.9187,Taloa Heights
1597,Muroto,JP,74.43,clear sky,33.2833,134.15,Oota Ryokan
1598,Hermanus,ZA,53.91,broken clouds,-34.4187,19.2345,Misty Waves Boutique Hotel
1599,Narsipatnam,IN,81.81,broken clouds,17.6667,82.6167,Lodge Vooda Residency AC
1600,Georgetown,MY,80.89,few clouds,5.4112,100.3354,Cititel Penang
1602,Rikitea,PF,72.43,light rain,-23.1203,-134.9692,People ThankYou
1603,Bethel,US,73.78,clear sky,41.3712,-73.414,Courtyard by Marriott Danbury
1605,Port Elizabeth,ZA,52.11,scattered clouds,-33.918,25.5701,39 On Nile Guest House
1606,Vaini,TO,71.76,broken clouds,-21.2,-175.2,Keleti Beach Resort
1608,Cape Town,ZA,56.26,scattered clouds,-33.9258,18.4232,Southern Sun Waterfront Cape Town
1609,Martapura,ID,75.29,few clouds,-3.4167,114.85,Montana Hotel Syariah
1610,Bambous Virieux,MU,74.21,scattered clouds,-20.3428,57.7575,Casa Tia Villa
1612,Galle,LK,78.82,few clouds,6.0367,80.217,Amangalla
1615,Atuona,PF,77.95,scattered clouds,-9.8,-139.0333,Villa Enata
1616,Rikitea,PF,72.43,light rain,-23.1203,-134.9692,People ThankYou
1618,Isangel,VU,72.64,light rain,-19.55,169.2667,Tanna Lodge
1620,New Norfolk,AU,53.1,overcast clouds,-42.7826,147.0587,The Shingles Riverside Cottages
1622,Rikitea,PF,72.43,light rain,-23.1203,-134.9692,People ThankYou
1624,Jamestown,US,74.17,clear sky,42.097,-79.2353,Hampton Inn & Suites Jamestown
1625,Nikolskoye,RU,50.02,broken clouds,59.7035,30.7861,Tourist House - Sablino
1629,Cape Town,ZA,56.26,scattered clouds,-33.9258,18.4232,Southern Sun Waterfront Cape Town
1630,Alofi,NU,73.29,overcast clouds,-19.0595,-169.9187,Taloa Heights
1631,Kapaa,US,75.52,broken clouds,22.0752,-159.319,Sheraton Kauai Coconut Beach Resort
1634,Kankan,GN,72.3,overcast clouds,10.3854,-9.3057,Hotel Bate
1636,Vaini,TO,71.76,broken clouds,-21.2,-175.2,Keleti Beach Resort
1637,Rikitea,PF,72.43,light rain,-23.1203,-134.9692,People ThankYou
1638,Great Bend,US,65.88,light rain,38.3645,-98.7648,Best Western Angus Inn
1640,Eureka,US,60.21,overcast clouds,40.8021,-124.1637,Eureka Inn Trademark By Wyndham
1643,Requena,ES,68.22,few clouds,39.4883,-1.1004,Hotel Avenida
1644,Busselton,AU,51.08,overcast clouds,-33.65,115.3333,Observatory Guest House
1645,Ribeira Grande,PT,73.8,broken clouds,38.5167,-28.7,Quinta da Meia Eira
1646,Praia Da Vitoria,PT,77.25,scattered clouds,38.7333,-27.0667,Hotel Branco I
1649,Roebourne,AU,72.7,clear sky,-20.7833,117.1333,Latitude20 Roebourne Village
1651,Hobart,AU,53.46,heavy intensity drizzle,-42.8794,147.3294,Mantra on Collins Hobart
1655,Waingapu,ID,78.48,overcast clouds,-9.6567,120.2641,Pondok Wisata Elim
1657,San Quintin,MX,79.63,overcast clouds,30.4833,-115.95,Don Eddie's Sport Fishing Center
1659,Nikolskoye,RU,50.02,broken clouds,59.7035,30.7861,Tourist House - Sablino
1662,East London,ZA,59.13,broken clouds,-33.0153,27.9116,Tu Casa
1664,Rapid Valley,US,72.77,clear sky,44.0625,-103.1463,Fairfield Inn & Suites by Marriott Rapid City
1665,Half Moon Bay,US,82.58,clear sky,37.4636,-122.4286,"The Ritz-Carlton, Half Moon Bay"
1666,Port Blair,IN,80.91,light rain,11.6667,92.75,"Welcomhotel By ITC Hotels, Bay Island, Port Blair"
1669,La Rochelle,FR,64.47,mist,46.1667,-1.15,Hotel Henri IV
1674,Aracati,BR,89.67,clear sky,-4.5617,-37.7697,Motel Pousada Milleniun - Aracati-CE
1675,Asau,RO,51.76,clear sky,46.4333,26.4,Casa Mika Ciobanus
1676,Bambous Virieux,MU,74.21,scattered clouds,-20.3428,57.7575,Casa Tia Villa
1677,Castro,BR,71.6,light rain,-24.7911,-50.0119,CHACARA BAILLY
1678,New Norfolk,AU,53.1,overcast clouds,-42.7826,147.0587,The Shingles Riverside Cottages
1679,Atuona,PF,77.95,scattered clouds,-9.8,-139.0333,Villa Enata
1680,Jamestown,US,74.17,clear sky,42.097,-79.2353,Hampton Inn & Suites Jamestown
1682,Vila Velha,BR,84.15,clear sky,-20.3297,-40.2925,Quality Suites Vila Velha
1683,Acapulco,MX,85.82,scattered clouds,16.8634,-99.8901,HS Hotsson Smart Acapulco
1684,Bambous Virieux,MU,74.21,scattered clouds,-20.3428,57.7575,Casa Tia Villa
1685,Atuona,PF,77.95,scattered clouds,-9.8,-139.0333,Villa Enata
1688,Fortuna,US,58.93,overcast clouds,40.5982,-124.1573,Super 8 by Wyndham Fortuna
1689,Hermanus,ZA,53.91,broken clouds,-34.4187,19.2345,Misty Waves Boutique Hotel
1690,Quatre Cocos,MU,74.08,few clouds,-20.2078,57.7625,Sunrise Attitude Hotel
1692,Pacific Grove,US,82.62,clear sky,36.6177,-121.9166,Lovers Point Inn
1693,Arraial Do Cabo,BR,84.16,clear sky,-22.9661,-42.0278,Pousada Porto Praia
1694,Visegrad,BA,59.43,clear sky,43.7847,19.2992,Hotel Višegrad
1695,Melfi,IT,66.49,moderate rain,40.9965,15.6514,HOTEL TERME DI RAPOLLA
1697,Blackstone,US,73.26,clear sky,42.0179,-71.5412,Morning Star Lodge 13
1699,Chuy,UY,65.17,clear sky,-33.6971,-53.4616,Nuevo Hotel Plaza
1700,Thompson,CA,57.36,broken clouds,55.7435,-97.8558,Burntwood Hotel
1704,Hobart,AU,53.46,heavy intensity drizzle,-42.8794,147.3294,Mantra on Collins Hobart
1705,Victoria,HK,86.38,light rain,22.2855,114.1577,Mini Hotel Central
1707,Saint-Philippe,RE,71.22,scattered clouds,-21.3585,55.7679,"Chambres d'hôte ""La Trinité"""
1708,Puerto Ayora,EC,71.98,overcast clouds,-0.7393,-90.3518,Finch Bay Galapagos Hotel
1710,Gaziantep,TR,77.56,clear sky,37.0594,37.3825,Novotel Gaziantep
1711,Kavieng,PG,81.12,overcast clouds,-2.5744,150.7967,Nusa Island Retreat
1712,Sao Joao Da Barra,BR,87.89,overcast clouds,-21.6403,-41.0511,Pousada Porto De Canoas
1713,Rikitea,PF,72.43,light rain,-23.1203,-134.9692,People ThankYou
1714,Bethel,US,73.78,clear sky,41.3712,-73.414,Courtyard by Marriott Danbury
1715,Great Yarmouth,GB,58.44,moderate rain,52.6083,1.7305,Comfort Hotel Great Yarmouth
1716,Chapais,CA,53.38,few clouds,49.7834,-74.8492,Hôtel Opémiska
1717,Huilong,CN,72.99,light rain,31.8111,121.655,Hilton Garden Inn Qidong
1718,Camacha,PT,71.02,scattered clouds,33.0833,-16.3333,Hotel Porto Santo & Spa
1721,Saint-Philippe,RE,71.22,scattered clouds,-21.3585,55.7679,"Chambres d'hôte ""La Trinité"""
1722,Chapais,CA,53.38,few clouds,49.7834,-74.8492,Hôtel Opémiska
1723,East London,ZA,59.13,broken clouds,-33.0153,27.9116,Tu Casa
1724,Atuona,PF,77.95,scattered clouds,-9.8,-139.0333,Villa Enata
1728,Termoli,IT,69.39,overcast clouds,41.9888,14.9895,Hotel Mistral
1730,Busselton,AU,51.08,overcast clouds,-33.65,115.3333,Observatory Guest House
1731,Trelew,AR,52.12,overcast clouds,-43.249,-65.3051,Hotel Touring Club
1732,Torbay,CA,65.28,broken clouds,47.6666,-52.7314,Gallows Cove
1733,Bandarbeyla,SO,79.92,scattered clouds,9.4942,50.8122,JABIR HOTEL
1735,Lumsden,CA,60.08,clear sky,50.6501,-104.8678,Lumsden Hotel & Steak Pit
1736,Busselton,AU,51.08,overcast clouds,-33.65,115.3333,Observatory Guest House
1737,Samarai,PG,79.18,scattered clouds,-10.6167,150.6667,Nuli Sapi
1738,Georgetown,MY,80.89,few clouds,5.4112,100.3354,Cititel Penang
1740,Hilo,US,73.13,light rain,19.7297,-155.09,Hilo Hawaiian Hotel
1742,Kerman,IR,75.06,clear sky,30.2832,57.0788,هتل آپارتمان آسام
1743,Rikitea,PF,72.43,light rain,-23.1203,-134.9692,People ThankYou
1744,Sao Filipe,CV,80.13,scattered clouds,14.8961,-24.4956,Hotel Xaguate
1746,Piacabucu,BR,83.03,clear sky,-10.4056,-36.4344,Piaçabuçu News
1747,Caluquembe,AO,76.51,scattered clouds,-13.7833,14.6833,Hotel Kalukembe
1748,Vila Velha,BR,84.15,clear sky,-20.3297,-40.2925,Quality Suites Vila Velha
1751,Georgetown,MY,80.89,few clouds,5.4112,100.3354,Cititel Penang
1752,Kalmunai,LK,79.57,scattered clouds,7.4167,81.8167,VS Villa
1756,Jamestown,US,74.17,clear sky,42.097,-79.2353,Hampton Inn & Suites Jamestown
1757,Atuona,PF,77.95,scattered clouds,-9.8,-139.0333,Villa Enata
1759,Bambous Virieux,MU,74.21,scattered clouds,-20.3428,57.7575,Casa Tia Villa
1760,Spencer,US,69.71,mist,43.1414,-95.1444,Days Inn by Wyndham Hotel Spencer IA
1761,Kankon,IN,79.07,scattered clouds,15.0167,74.0167,Palolem Beach Resort
1762,Port Alfred,ZA,57.81,broken clouds,-33.5906,26.891,The Halyards Hotel
1763,Victoria,HK,86.38,light rain,22.2855,114.1577,Mini Hotel Central
1765,Sola,VU,77.32,overcast clouds,-13.8833,167.55,Leumerus Bungalows
1771,Faanui,PF,79.29,scattered clouds,-16.4833,-151.75,Bora-Bora Pearl Beach Resort & Spa
1773,San Juan,AR,84.13,clear sky,-31.5375,-68.5364,Hotel Provincial
1774,Portland,US,59.9,mist,45.5234,-122.6762,Embassy Suites by Hilton Portland Downtown
1778,Lakselv,NO,55.22,broken clouds,70.0513,24.9718,Lakselv Hotel
1779,Eydhafushi,MV,80.64,overcast clouds,5.1033,73.0708,Soneva Fushi
1780,Cabo San Lucas,MX,81.95,broken clouds,22.8909,-109.9124,Hotel Tesoro Los Cabos
1781,Rikitea,PF,72.43,light rain,-23.1203,-134.9692,People ThankYou
1783,Cordoba,AR,85.05,dust,-31.4135,-64.1811,Hotel Sussex
1785,Nador,MA,77.07,scattered clouds,35.174,-2.9287,Hôtel La Giralda
1786,Cao Bang,VN,73.9,scattered clouds,22.6667,106.25,khách sạn 88
1787,Gasa,PS,77.92,clear sky,31.5,34.4667,رابطة الفنانين الفلسطينيين
1788,Souillac,MU,74.35,scattered clouds,-20.5167,57.5167,Shanti Maurice Resort & Spa
1789,Vaini,TO,71.76,broken clouds,-21.2,-175.2,Keleti Beach Resort
1790,Hermanus,ZA,53.91,broken clouds,-34.4187,19.2345,Misty Waves Boutique Hotel
1792,Kapaa,US,75.52,broken clouds,22.0752,-159.319,Sheraton Kauai Coconut Beach Resort
1793,Ponta Do Sol,PT,77.72,clear sky,32.6667,-17.1,Hotel do Campo
1794,Ponta Do Sol,PT,77.72,clear sky,32.6667,-17.1,Hotel do Campo
1799,Prince Rupert,CA,51.49,light rain,54.3161,-130.3201,Crest Hotel
1800,Davila,PH,81.27,overcast clouds,18.4726,120.5763,Blue Ridge Beach Resort
1801,Los Llanos De Aridane,ES,73.15,broken clouds,28.6585,-17.9182,Valle Aridane
1802,Bereda,ES,67.41,overcast clouds,43.2686,-7.5406,Pazo de Verdes
1803,Port Alfred,ZA,57.81,broken clouds,-33.5906,26.891,The Halyards Hotel
1805,Burgeo,CA,58.64,clear sky,47.6167,-57.6152,Gillett's Motel
1806,Ponta Do Sol,PT,77.72,clear sky,32.6667,-17.1,Hotel do Campo
1807,Yulara,AU,67.84,clear sky,-25.2406,130.9889,Desert Gardens Hotel - Ayers Rock Resort
1808,Bengkulu,ID,76.84,overcast clouds,-3.8004,102.2655,Grage Hotel Bengkulu
1810,Atuona,PF,77.95,scattered clouds,-9.8,-139.0333,Villa Enata
1811,Roma,US,74.95,overcast clouds,43.2128,-75.4557,Wingate By Wyndham Rome
1812,Cape Town,ZA,56.26,scattered clouds,-33.9258,18.4232,Southern Sun Waterfront Cape Town
1816,Rikitea,PF,72.43,light rain,-23.1203,-134.9692,People ThankYou
1817,La Ronge,CA,57.45,broken clouds,55.1001,-105.2842,Northland Motor Hotel
1818,Castro,BR,71.6,light rain,-24.7911,-50.0119,CHACARA BAILLY
1819,Georgetown,MY,80.89,few clouds,5.4112,100.3354,Cititel Penang
1820,Airai,TL,60.31,overcast clouds,-8.9266,125.4092,Juvinal Martin
1821,Fram,PY,77.59,overcast clouds,-26.9833,-55.8833,Albergue Ja'umina
1822,Atuona,PF,77.95,scattered clouds,-9.8,-139.0333,Villa Enata
1823,Bredasdorp,ZA,51.28,broken clouds,-34.5322,20.0403,Bredasdorp Country Manor
1824,North Platte,US,67.37,clear sky,41.1239,-100.7654,"Holiday Inn Express & Suites North Platte, an IHG Hotel"
1825,Stange,NO,51.62,overcast clouds,60.718,11.1942,Nyborg Rom & Camping
1826,Poso,ID,77.54,overcast clouds,-1.3959,120.7524,Hotel 77 Poso
1830,Port Macquarie,AU,58.96,scattered clouds,-31.4333,152.9167,Rydges Port Macquarie
1831,Butaritari,KI,82.49,overcast clouds,3.0707,172.7902,Isles Sunset Lodge
1832,Guerrero Negro,MX,79.56,clear sky,27.9769,-114.0611,"Casa Laguna, Bed & Breakfast"
1833,Rikitea,PF,72.43,light rain,-23.1203,-134.9692,People ThankYou
1835,Hilo,US,73.13,light rain,19.7297,-155.09,Hilo Hawaiian Hotel
1836,Saint-Philippe,RE,71.22,scattered clouds,-21.3585,55.7679,"Chambres d'hôte ""La Trinité"""
1837,Mayumba,GA,77.09,overcast clouds,-3.432,10.6554,LIKWALE LODGE
1839,Butaritari,KI,82.49,overcast clouds,3.0707,172.7902,Isles Sunset Lodge
